FID,siteId,uwwCode,repCode,uwwName,uwwState,uwwE-PRTRCode,uwwCollectingSystem,uwwNUTS,uwwLoadEnteringUWWTP,uwwCapacity,uwwPrimaryTreatment,uwwSecondaryTreatment,uwwNRemoval,uwwPRemoval,uwwUV,uwwChlorination,uwwOzonation,uwwSandFiltration,uwwMicroFiltration,uwwSpecification,uwwBOD5Perf,uwwCODPerf,uwwTSSPerf,uwwNTotPerf,uwwPTotPerf,uwwOtherPerf,uwwBadPerfDesign,uwwLatitude,uwwLongitude,the_geom,uwwBODIncomingMeasured,uwwCODIncomingMeasured,uwwNIncomingMeasured,uwwPIncomingMeasured,uwwBODDischargeMeasured,uwwCODDischargeMeasured,uwwNDischargeMeasured,uwwPDischargeMeasured,uwwWasteWaterTreated,uwwMethodWasteWaterTreated,uwwRemarks,uwwDateClosing,uwwAccidents,uwwBadPerformance,uwwBODDischargeCalculated,uwwBODDischargeEstimated,uwwBODIncomingCalculated,uwwBODIncomingEstimated,uwwCODDischargeCalculated,uwwCODDischargeEstimated,uwwCODIncomingCalculated,uwwCODIncomingEstimated,uwwHistorie,uwwInformation,uwwNDischargeCalculated,uwwNDischargeEstimated,uwwNIncomingCalculated,uwwNIncomingEstimated,uwwPDischargeCalculated,uwwPDischargeEstimated,uwwPIncomingCalculated,uwwPIncomingEstimated,uwwOther,uwwTreatmentType,repReportedPerdiod
UWWTD_United-Kingdom_UrbanWasteWaterTreatmentPlant.fid-27ca0597_176cdf32d22_-1609,2016_uww_UKNI_TP00013,UKNI_TP00013,UK5,Tandragee,1,,ISCON,UKN07,14185,19300,1,1,0,1,0,0,0,0,0,MBR plant,P,P,NR,NR,P,NR,,54.349,-6.404,POINT (-6.404 54.34900003475147),,,,,,,,,,,,,,,,,,,,,,,,,,,,,,,,,NR,More Stringent,2016
UWWTD_United-Kingdom_UrbanWasteWaterTreatmentPlant.fid-27ca0597_176cdf32d22_-1608,2016_uww_UKSC_TP00077,UKSC_TP00077,UK5,FOCHABERS WWTP,1,,ISCON,UKM62,3218,3500,1,1,0,0,0,0,0,0,0,,P,P,,NR,NR,,,57.62433,-3.10167,POINT (-3.101670000000001 57.62433003019494),,,,,,,,,,,,,,,,,,,,,,,,,,,,,,,,,,Secondary,2016
UWWTD_United-Kingdom_UrbanWasteWaterTreatmentPlant.fid-27ca0597_176cdf32d22_-1607,2016_uww_UKSC_TP00078,UKSC_TP00078,UK5,FORFAR NEW WWTP,1,,ISCON,UKM71,20349,30000,1,1,1,1,0,0,0,0,0,,P,P,,P,P,,,56.64134,-2.90993,POINT (-2.90993 56.64134003165175),,,,,,,,,,,,,,,,,,,,,,,,,,,,,,,,,,More Stringent,2016
UWWTD_United-Kingdom_UrbanWasteWaterTreatmentPlant.fid-27ca0597_176cdf32d22_-1606,2016_uww_UKSC_TP00079,UKSC_TP00079,UK5,FORRES WWTP,1,,ISCON,UKM62,15918,18000,1,1,0,0,0,0,0,0,0,,P,P,,NR,NR,,,57.61541,-3.61104,POINT (-3.6110400000000005 57.615410030208444),,,,,,,,,,,,,,,,,,,,,,,,,,,,,,,,,,Secondary,2016
UWWTD_United-Kingdom_UrbanWasteWaterTreatmentPlant.fid-27ca0597_176cdf32d22_-1605,2016_uww_UKSC_TP00080,UKSC_TP00080,UK5,FORT WILLIAM NEW WWTP,1,,ISCON,UKM63,16284,23500,1,1,0,0,0,0,0,0,0,,P,P,,NR,NR,,,56.82839,-5.10111,POINT (-5.10111 56.828390031379726),,,,,,,,,,,,,,,,,,,,,,,,,,,,,,,,,,Secondary,2016
UWWTD_United-Kingdom_UrbanWasteWaterTreatmentPlant.fid-27ca0597_176cdf32d22_-1604,2016_uww_UKSC_TP00081,UKSC_TP00081,UK5,FORTH S.T.W.,1,,ISCON,UKM95,2445,3500,1,1,0,0,0,0,0,0,0,,P,P,,NR,NR,,,55.76154,-3.67941,POINT (-3.679410000000002 55.761540032895105),,,,,,,,,,,,,,,,,,,,,,,,,,,,,,,,,,Secondary,2016
UWWTD_United-Kingdom_UrbanWasteWaterTreatmentPlant.fid-27ca0597_176cdf32d22_-1603,2016_uww_UKSC_TP00082,UKSC_TP00082,UK5,FRASERBURGH WWTW- ABERDEEN PFI,1,,ISCON,UKM50,25944,96667,1,1,0,0,1,0,0,0,0,,P,P,,NR,NR,,,57.69087,-2.04895,POINT (-2.0489499999999996 57.69087003009401),,,,,,,,,,,,,,,,,,,,,,,,,,,,,,,,,,More Stringent,2016
UWWTD_United-Kingdom_UrbanWasteWaterTreatmentPlant.fid-27ca0597_176cdf32d22_-1602,2016_uww_UKSC_TP00084,UKSC_TP00084,UK5,GIRVAN S.T.W.,1,,ISCON,UKM94,15669,20250,1,1,0,0,0,0,0,0,0,,P,P,,NR,NR,,,55.26102,-4.84906,POINT (-4.84906 55.26102003357379),,,,,,,,,,,,,,,,,,,,,,,,,,,,,,,,,,Secondary,2016
UWWTD_United-Kingdom_UrbanWasteWaterTreatmentPlant.fid-27ca0597_176cdf32d22_-1601,2016_uww_UKSC_TP00085,UKSC_TP00085,UK5,GLENEAGLES STW,1,,ISCON,UKM77,3500,3500,1,1,0,0,0,0,0,0,0,,P,P,,NR,NR,,,56.27982,-3.72833,POINT (-3.7283299999999997 56.27982003217009),,,,,,,,,,,,,,,,,,,,,,,,,,,,,,,,,,Secondary,2016
UWWTD_United-Kingdom_UrbanWasteWaterTreatmentPlant.fid-27ca0597_176cdf32d22_-1600,2016_uww_UKSC_TP00086,UKSC_TP00086,UK5,GOREBRIDGE WWTW,1,,ISCON,UKM73,4043,5126,1,1,0,0,0,0,0,0,0,,P,P,,NR,NR,,,55.84009,-3.05531,POINT (-3.05531 55.84009003278664),,,,,,,,,,,,,,,,,,,,,,,,,,,,,,,,,,Secondary,2016
UWWTD_United-Kingdom_UrbanWasteWaterTreatmentPlant.fid-27ca0597_176cdf32d22_-15ff,2016_uww_UKENAN_AW_TP000120,UKENAN_AW_TP000120,UK5,HALESWORTH STW,1,,ISCON,UKH14,7710,9000,1,1,0,0,0,0,0,0,0,,P,P,,NR,NR,P,,52.33663855,1.50856237,POINT (1.508562373 52.336638587045734),,,,,,,,,,,,,,,,,,,,,,,,,,,,,,,,,P,Secondary,2016
UWWTD_United-Kingdom_UrbanWasteWaterTreatmentPlant.fid-27ca0597_176cdf32d22_-15fe,2016_uww_UKENAN_AW_TP000121,UKENAN_AW_TP000121,UK5,HALSTEAD   STW,1,,ISCON,UKH34,13882,13882,1,1,0,1,0,0,0,0,0,,P,P,,NR,P,P,,51.9353882,0.6678616,POINT (0.667861601 51.93538823744794),,,,,,,,,,,,,,,,,,,,,,,,,,,,,,,,,P,More Stringent,2016
UWWTD_United-Kingdom_UrbanWasteWaterTreatmentPlant.fid-27ca0597_176cdf32d22_-15fd,2016_uww_UKENSW_WXW_TP000063,UKENSW_WXW_TP000063,UK5,PEWSEY STW,1,,ISCON,UKK15,7361,10850,1,1,0,0,0,0,0,1,0,P removal (non-UWWTD),P,P,,NR,NR,P,,51.333185,-1.77701901,POINT (-1.77701901 51.33318503801447),,,,,,,,,,,,,,,,,,,,,,,,,,,,,,,,,P,More Stringent,2016
UWWTD_United-Kingdom_UrbanWasteWaterTreatmentPlant.fid-27ca0597_176cdf32d22_-15fc,2016_uww_UKENSW_WXW_TP000064,UKENSW_WXW_TP000064,UK5,POOLE STW,1,,ISCON,UKK21,166931,215050,1,1,1,0,1,0,0,1,0,N removal,P,P,,P,NR,P,,50.74426491,-1.9915968,POINT (-1.991596795 50.7442649485239),,,,,,,,,,,,,,,,,,,,,,,,,,,,,,,,,P,More Stringent,2016
UWWTD_United-Kingdom_UrbanWasteWaterTreatmentPlant.fid-27ca0597_176cdf32d22_-15fb,2016_uww_UKENAN_AW_TP000122,UKENAN_AW_TP000122,UK5,HANSLOPE STW,1,,ISCON,UKJ12,2290,2290,1,1,0,0,0,0,0,0,0,,P,P,,NR,NR,P,,52.11847762,-0.84064311,POINT (-0.840643113 52.11847765726684),,,,,,,,,,,,,,,,,,,,,,,,,,,,,,,,,P,Secondary,2016
UWWTD_United-Kingdom_UrbanWasteWaterTreatmentPlant.fid-27ca0597_176cdf32d22_-15fa,2016_uww_UKENSW_WXW_TP000065,UKENSW_WXW_TP000065,UK5,PORTSIHEAD / PILL   STW,1,,ISCON,UKK12,29910,31185,1,1,0,0,0,0,0,0,0,,P,P,,NR,NR,P,,51.49171037,-2.73613305,POINT (-2.736133048 51.491710407869746),,,,,,,,,,,,,,,,,,,,,,,,,,,,,,,,,P,Secondary,2016
UWWTD_United-Kingdom_UrbanWasteWaterTreatmentPlant.fid-27ca0597_176cdf32d22_-15f9,2016_uww_UKENSW_WXW_TP000066,UKENSW_WXW_TP000066,UK5,POTTERNE STW,1,,ISCON,UKK15,11587,14903,1,1,0,1,0,0,0,0,0,,P,P,,NR,P,P,,51.32803618,-2.01747222,POINT (-2.01747222 51.32803621801913),,,,,,,,,,,,,,,,,,,,,,,,,,,,,,,,,P,More Stringent,2016
UWWTD_United-Kingdom_UrbanWasteWaterTreatmentPlant.fid-27ca0597_176cdf32d22_-15f8,2016_uww_UKENAN_AW_TP000123,UKENAN_AW_TP000123,UK5,HARLESTON STW,1,,ISCON,UKH17,5699,7000,1,1,0,0,0,0,0,0,0,,P,P,,NR,NR,P,,52.40872221,1.30485771,POINT (1.3048577100000003 52.40872224697144),,,,,,,,,,,,,,,,,,,,,,,,,,,,,,,,,P,Secondary,2016
UWWTD_United-Kingdom_UrbanWasteWaterTreatmentPlant.fid-27ca0597_176cdf32d22_-15f7,2016_uww_UKENSW_WXW_TP000067,UKENSW_WXW_TP000067,UK5,PUCKLECHURCH STW,1,,ISCON,UKK12,2601,2900,1,1,0,0,0,0,0,0,0,,P,P,,NR,NR,P,,51.47993423,-2.42763935,POINT (-2.4276393479999996 51.479934267880594),,,,,,,,,,,,,,,,,,,,,,,,,,,,,,,,,P,Secondary,2016
UWWTD_United-Kingdom_UrbanWasteWaterTreatmentPlant.fid-27ca0597_176cdf32d22_-15f6,2016_uww_UKENSW_WXW_TP000068,UKENSW_WXW_TP000068,UK5,RADSTOCK / MIDSOMER NORTON STW,1,,ISCON,UKK12,22341,25950,1,1,0,1,0,0,0,0,0,,P,P,,NR,P,P,,51.29468428,-2.43337257,POINT (-2.433372568 51.29468431804913),,,,,,,,,,,,,,,,,,,,,,,,,,,,,,,,,P,More Stringent,2016
UWWTD_United-Kingdom_UrbanWasteWaterTreatmentPlant.fid-27ca0597_176cdf32d22_-15f5,2016_uww_UKENSW_WXW_TP000069,UKENSW_WXW_TP000069,UK5,RAF LYNEHAM STW,1,,ISCON,UKK15,3913,6578,1,1,0,0,0,0,0,1,1,,P,P,,NR,NR,P,,51.50543727,-1.96769003,POINT (-1.9676900330000002 51.50543730785706),,,,,,,,,,,,,,,,,,,,,,,,,,,,,,,,,P,More Stringent,2016
UWWTD_United-Kingdom_UrbanWasteWaterTreatmentPlant.fid-27ca0597_176cdf32d22_-15f4,2016_uww_UKENAN_AW_TP000246,UKENAN_AW_TP000246,UK5,ST OSYTH STW,1,,ISCON,UKH34,9570,17523,1,1,0,0,0,0,0,0,0,,P,P,,NR,NR,P,,51.77815475,1.05056231,POINT (1.050562307 51.77815478760021),,,,,,,,,,,,,,,,,,,,,,,,,,,,,,,,,P,Secondary,2016
UWWTD_United-Kingdom_UrbanWasteWaterTreatmentPlant.fid-27ca0597_176cdf32d22_-15f3,2016_uww_UKENSW_WXW_TP000070,UKENSW_WXW_TP000070,UK5,RATFYN STW,1,,ISCON,UKK15,10383,19133,1,1,0,1,0,0,0,1,0,,P,P,,NR,P,P,,51.18422997,-1.77438943,POINT (-1.7743894320000002 51.184230008147544),,,,,,,,,,,,,,,,,,,,,,,,,,,,,,,,,P,More Stringent,2016
UWWTD_United-Kingdom_UrbanWasteWaterTreatmentPlant.fid-27ca0597_176cdf32d22_-15f2,2016_uww_UKENAN_AW_TP000247,UKENAN_AW_TP000247,UK5,STALHAM STW,1,,ISCON,UKH16,9645,9976,1,1,0,1,0,0,0,0,0,,P,P,,NR,P,P,,52.77333925,1.49535263,POINT (1.495352632 52.773339286586236),,,,,,,,,,,,,,,,,,,,,,,,,,,,,,,,,P,More Stringent,2016
UWWTD_United-Kingdom_UrbanWasteWaterTreatmentPlant.fid-27ca0597_176cdf32d22_-15f1,2016_uww_UKENSW_WXW_TP000071,UKENSW_WXW_TP000071,UK5,REDWICK STW,1,,ISCON,UKK12,4105,12624,1,1,0,0,0,0,0,0,0,,P,P,,NR,NR,P,,51.57204691,-2.65316426,POINT (-2.6531642610000006 51.57204694779517),,,,,,,,,,,,,,,,,,,,,,,,,,,,,,,,,P,Secondary,2016
UWWTD_United-Kingdom_UrbanWasteWaterTreatmentPlant.fid-27ca0597_176cdf32d22_-15f0,2016_uww_UKENSW_WXW_TP000072,UKENSW_WXW_TP000072,UK5,RINGWOOD STW,1,,ISCON,UKJ36,16668,26117,1,1,0,1,0,0,0,0,0,,P,P,,NR,P,P,,50.83201629,-1.78568801,POINT (-1.7856880089999998 50.832016328450834),,,,,,,,,,,,,,,,,,,,,,,,,,,,,,,,,P,More Stringent,2016
UWWTD_United-Kingdom_UrbanWasteWaterTreatmentPlant.fid-27ca0597_176cdf32d22_-15ef,2016_uww_UKENAN_AW_TP000248,UKENAN_AW_TP000248,UK5,STAMFORD STW,1,,ISCON,UKH11,22611,22980,1,1,0,1,0,0,0,0,0,,P,P,,NR,P,P,,52.64564893,-0.41849406,POINT (-0.418494062 52.64564896672291),,,,,,,,,,,,,,,,,,,,,,,,,,,,,,,,,P,More Stringent,2016
UWWTD_United-Kingdom_UrbanWasteWaterTreatmentPlant.fid-27ca0597_176cdf32d22_-15ee,2016_uww_UKENSW_WXW_TP000073,UKENSW_WXW_TP000073,UK5,ROWDE STW,1,,ISCON,UKK15,2736,2945,1,1,0,0,0,0,0,0,0,,P,P,,NR,NR,P,,51.36387778,-2.04724709,POINT (-2.0472470889999994 51.3638778179867),,,,,,,,,,,,,,,,,,,,,,,,,,,,,,,,,P,Secondary,2016
UWWTD_United-Kingdom_UrbanWasteWaterTreatmentPlant.fid-27ca0597_176cdf32d22_-15ed,2016_uww_UKENSW_WXW_TP000074,UKENSW_WXW_TP000074,UK5,SALISBURY STW,1,,ISCON,UKK15,60485,79367,1,1,0,1,0,0,0,0,0,,P,P,,NR,P,P,,51.06129586,-1.77250366,POINT (-1.7725036640000005 51.06129589825524),,,,,,,,,,,,,,,,,,,,,,,,,,,,,,,,,P,More Stringent,2016
UWWTD_United-Kingdom_UrbanWasteWaterTreatmentPlant.fid-27ca0597_176cdf32d22_-15ec,2016_uww_UKENSW_WXW_TP000075,UKENSW_WXW_TP000075,UK5,SHAFTESBURY STW,1,,ISCON,UKK22,18592,29067,1,1,0,0,0,0,0,0,0,,P,P,,NR,NR,P,,50.99210785,-2.19829753,POINT (-2.198297534000001 50.992107888314976),,,,,,,,,,,,,,,,,,,,,,,,,,,,,,,,,P,Secondary,2016
UWWTD_United-Kingdom_UrbanWasteWaterTreatmentPlant.fid-27ca0597_176cdf32d22_-15eb,2016_uww_UKENSW_WXW_TP000076,UKENSW_WXW_TP000076,UK5,SHARPNESS STW,1,,ISCON,UKK13,5418,9250,1,1,0,0,0,0,0,0,0,,P,P,,NR,NR,P,,51.71119081,-2.47483009,POINT (-2.4748300879999996 51.711190847664156),,,,,,,,,,,,,,,,,,,,,,,,,,,,,,,,,P,Secondary,2016
UWWTD_United-Kingdom_UrbanWasteWaterTreatmentPlant.fid-27ca0597_176cdf32d22_-15ea,2016_uww_UKENSW_WXW_TP000077,UKENSW_WXW_TP000077,UK5,SHEPTON MALLET STW,1,,ISCON,UKK23,51032,52004,1,1,0,1,0,0,0,1,0,P removal from 31/12/2013,P,P,,NR,P,P,,51.19355338,-2.57309479,POINT (-2.573094791 51.19355341813928),,,,,,,,,,,,,,,,,,,,,,,,,,,,,,,,,P,More Stringent,2016
UWWTD_United-Kingdom_UrbanWasteWaterTreatmentPlant.fid-27ca0597_176cdf32d22_-15e9,2016_uww_UKENSW_WXW_TP000078,UKENSW_WXW_TP000078,UK5,SHERBORNE STW,1,,ISCON,UKK22,10766,19917,1,1,0,1,0,0,0,0,0,P removal from 31/05/2014,P,P,,NR,P,P,,50.93677997,-2.52538622,POINT (-2.525386222 50.93678000836232),,,,,,,,,,,,,,,,,,,,,,,,,,,,,,,,,P,More Stringent,2016
UWWTD_United-Kingdom_UrbanWasteWaterTreatmentPlant.fid-27ca0597_176cdf32d22_-15e8,2016_uww_UKENSW_WXW_TP000079,UKENSW_WXW_TP000079,UK5,SHILLINGSTONE STW,1,,ISCON,UKK22,2813,3974,1,1,0,0,0,0,0,0,0,,P,P,,NR,NR,P,,50.89645084,-2.23514455,POINT (-2.23514455 50.89645087839658),,,,,,,,,,,,,,,,,,,,,,,,,,,,,,,,,P,Secondary,2016
UWWTD_United-Kingdom_UrbanWasteWaterTreatmentPlant.fid-27ca0597_176cdf32d22_-15e7,2016_uww_UKENSW_WXW_TP000080,UKENSW_WXW_TP000080,UK5,SOMERTON STW,1,,ISCON,UKK23,7232,8118,1,1,0,0,0,0,0,0,0,,P,P,,NR,NR,P,,51.06485776,-2.73675994,POINT (-2.7367599400000007 51.06485779825215),,,,,,,,,,,,,,,,,,,,,,,,,,,,,,,,,P,Secondary,2016
UWWTD_United-Kingdom_UrbanWasteWaterTreatmentPlant.fid-27ca0597_176cdf32d22_-15e6,2016_uww_UKENSW_WXW_TP000081,UKENSW_WXW_TP000081,UK5,SOUTH PETHERTON STW,1,,ISCON,UKK23,5513,5854,1,1,0,0,0,0,0,0,0,,P,P,,NR,NR,P,,50.95303497,-2.81172531,POINT (-2.8117253079999993 50.953035008348444),,,,,,,,,,,,,,,,,,,,,,,,,,,,,,,,,P,Secondary,2016
UWWTD_United-Kingdom_UrbanWasteWaterTreatmentPlant.fid-27ca0597_176cdf32d22_-15e5,2016_uww_UKENSW_WXW_TP000082,UKENSW_WXW_TP000082,UK5,STURMINSTER NEWTON STW,1,,ISCON,UKK22,5879,5879,1,1,0,0,0,0,0,0,0,,P,P,,NR,NR,P,,50.92689344,-2.293208,POINT (-2.293208001999999 50.92689347837072),,,,,,,,,,,,,,,,,,,,,,,,,,,,,,,,,P,Secondary,2016
UWWTD_United-Kingdom_UrbanWasteWaterTreatmentPlant.fid-27ca0597_176cdf32d22_-15e4,2016_uww_UKENSW_WXW_TP000083,UKENSW_WXW_TP000083,UK5,SUTTON BENGER STW,1,,ISCON,UKK15,5144,9705,1,1,0,0,0,0,0,0,0,,P,P,,NR,NR,P,,51.50793876,-2.06898114,POINT (-2.068981139 51.507938797854735),,,,,,,,,,,,,,,,,,,,,,,,,,,,,,,,,P,Secondary,2016
UWWTD_United-Kingdom_UrbanWasteWaterTreatmentPlant.fid-27ca0597_176cdf32d22_-15e3,2016_uww_UKENAN_AW_TP000124,UKENAN_AW_TP000124,UK5,HARWICH   STW,1,,ISCON,UKH34,23958,32733,1,1,0,0,0,0,0,1,0,,P,P,,NR,NR,P,,51.93744555,1.22785603,POINT (1.227856026 51.93744558744594),,,,,,,,,,,,,,,,,,,,,,,,,,,,,,,,,P,More Stringent,2016
UWWTD_United-Kingdom_UrbanWasteWaterTreatmentPlant.fid-27ca0597_176cdf32d22_-15e2,2016_uww_UKENAN_AW_TP000249,UKENAN_AW_TP000249,UK5,STANBRIDGEFORD STW,1,,ISCON,UKH25,14723,14723,1,1,1,1,0,0,0,0,0,,P,P,,P,P,P,,51.89523436,-0.6027934,POINT (-0.6027933969999999 51.89523439748713),,,,,,,,,,,,,,,,,,,,,,,,,,,,,,,,,P,More Stringent,2016
UWWTD_United-Kingdom_UrbanWasteWaterTreatmentPlant.fid-27ca0597_176cdf32d22_-15e1,2016_uww_UKENSW_WXW_TP000084,UKENSW_WXW_TP000084,UK5,SWANAGE STW,1,,ISCON,UKK22,22352,23917,1,1,0,0,0,0,0,0,0,MEMBRANE PLANT,P,P,,NR,NR,P,,50.60756542,-1.95106167,POINT (-1.9510616660000002 50.6075654586357),,,,,,,,,,,,,,,,,,,,,,,,,,,,,,,,,P,Secondary,2016
UWWTD_United-Kingdom_UrbanWasteWaterTreatmentPlant.fid-27ca0597_176cdf32d22_-15e0,2016_uww_UKENSW_WXW_TP000085,UKENSW_WXW_TP000085,UK5,BLANDFORD FORUM   STW,1,,ISCON,UKK22,17499,23467,1,1,0,0,0,0,0,0,0,,P,P,,NR,NR,P,,50.82612669,-2.11879472,POINT (-2.118794724 50.82612672845579),,,,,,,,,,,,,,,,,,,,,,,,,,,,,,,,,P,Secondary,2016
UWWTD_United-Kingdom_UrbanWasteWaterTreatmentPlant.fid-27ca0597_176cdf32d22_-15df,2016_uww_UKENAN_AW_TP000019,UKENAN_AW_TP000019,UK5,BIGGLESWADE STW,1,,ISCON,UKH25,19023,25230,1,1,0,1,0,0,0,0,0,,P,P,,NR,P,P,,52.10620289,-0.26106436,POINT (-0.261064362 52.106202927279114),,,,,,,,,,,,,,,,,,,,,,,,,,,,,,,,,P,More Stringent,2016
UWWTD_United-Kingdom_UrbanWasteWaterTreatmentPlant.fid-27ca0597_176cdf32d22_-15de,2016_uww_UKENSW_WXW_TP000086,UKENSW_WXW_TP000086,UK5,TAUNTON STW,1,,ISCON,UKK23,86699,113333,1,1,0,0,0,0,0,0,0,,P,P,,NR,NR,P,,51.01581559,-3.02708904,POINT (-3.027089035 51.01581562829459),,,,,,,,,,,,,,,,,,,,,,,,,,,,,,,,,P,Secondary,2016
UWWTD_United-Kingdom_UrbanWasteWaterTreatmentPlant.fid-27ca0597_176cdf32d22_-15dd,2016_uww_UKENNE_YW_TP000023,UKENNE_YW_TP000023,UK5,KNARESBOROUGH STW,1,,ISCON,UKE22,16487,18250,1,1,0,0,0,0,0,0,0,,P,P,,NR,NR,P,,54.0050429,-1.44309613,POINT (-1.4430961330000003 54.0050429351745),,,,,,,,,,,,,,,,,,,,,,,,,,,,,,,,,P,Secondary,2016
UWWTD_United-Kingdom_UrbanWasteWaterTreatmentPlant.fid-27ca0597_176cdf32d22_-15dc,2016_uww_UKENSO_SW_TP000091,UKENSO_SW_TP000091,UK5,"EAST HASTINGS, BEXHILL   STW""",1,,ISCON,UKJ22,141227,141227,1,1,0,0,0,0,0,0,0,,P,P,,NR,NR,P,,50.85699169,0.50719372,POINT (0.507193718 50.85699172842989),,,,,,,,,,,,,,,,,,,,,,,,,,,,,,,,,P,Secondary,2016
UWWTD_United-Kingdom_UrbanWasteWaterTreatmentPlant.fid-27ca0597_176cdf32d22_-15db,2016_uww_UKENSW_WXW_TP000087,UKENSW_WXW_TP000087,UK5,TETBURY STW,1,,ISCON,UKK13,5949,8283,1,1,0,0,0,0,0,0,0,,P,P,,NR,NR,P,,51.63382461,-2.15557495,POINT (-2.155574948 51.633824647737285),,,,,,,,,,,,,,,,,,,,,,,,,,,,,,,,,P,Secondary,2016
UWWTD_United-Kingdom_UrbanWasteWaterTreatmentPlant.fid-27ca0597_176cdf32d22_-15da,2016_uww_UKENMI_ST_TP000197,UKENMI_ST_TP000197,UK5,SNARROWS STW,1,,ISCON,UKF22,45868,45868,1,1,0,1,0,0,0,1,0,,P,P,,NR,P,P,,52.76228293,-1.35770757,POINT (-1.3577075680000001 52.762282966598164),,,,,,,,,,,,,,,,,,,,,,,,,,,,,,,,,P,More Stringent,2016
UWWTD_United-Kingdom_UrbanWasteWaterTreatmentPlant.fid-27ca0597_176cdf32d22_-15d9,2016_uww_UKENNW_UU_TP000128,UKENNW_UU_TP000128,UK5,WESTHOUGHTON STW,1,,ISCON,UKD36,29430,32614,1,1,0,1,0,0,0,0,0,Ferric Dosing,P,P,,NR,P,P,,53.52843435,-2.52947011,POINT (-2.5294701090000005 53.528434385740375),,,,,,,,,,,,,,,,,,,,,,,,,,,,,,,,,P,More Stringent,2016
UWWTD_United-Kingdom_UrbanWasteWaterTreatmentPlant.fid-27ca0597_176cdf32d22_-15d8,2016_uww_UKENNW_UU_TP000129,UKENNW_UU_TP000129,UK5,WHALEY BRIDGE STW,1,,ISCON,UKF13,38483,40084,1,1,0,0,0,0,0,0,0,,P,P,,NR,NR,P,,53.34588181,-1.98270195,POINT (-1.982701949 53.34588184595068),,,,,,,,,,,,,,,,,,,,,,,,,,,,,,,,,P,Secondary,2016
UWWTD_United-Kingdom_UrbanWasteWaterTreatmentPlant.fid-27ca0597_176cdf32d22_-15d7,2016_uww_UKENNW_UU_TP000130,UKENNW_UU_TP000130,UK5,WHALLEY STW,1,,ISCON,UKD45,4986,5076,1,1,0,0,0,0,0,0,0,,P,P,,NR,NR,P,,53.82311908,-2.42684333,POINT (-2.4268433299999996 53.82311911539332),,,,,,,,,,,,,,,,,,,,,,,,,,,,,,,,,P,Secondary,2016
UWWTD_United-Kingdom_UrbanWasteWaterTreatmentPlant.fid-27ca0597_176cdf32d22_-15d6,2016_uww_UKENMI_ST_TP000246,UKENMI_ST_TP000246,UK5,BELBROUGHTON STW,1,,ISCON,UKG12,2128,2200,1,1,0,0,0,0,0,1,0,,P,P,,NR,NR,P,,52.38547368,-2.13293767,POINT (-2.1329376690000004 52.38547371699547),,,,,,,,,,,,,,,,,,,,,,,,,,,,,,,,,P,More Stringent,2016
UWWTD_United-Kingdom_UrbanWasteWaterTreatmentPlant.fid-27ca0597_176cdf32d22_-15d5,2016_uww_UKENMI_ST_TP000247,UKENMI_ST_TP000247,UK5,BROMSGROVE STW,1,,ISCON,UKG12,60793,60793,1,1,0,1,0,0,0,0,0,,P,P,,NR,P,P,,52.31316242,-2.06040381,POINT (-2.060403812 52.3131624570698),,,,,,,,,,,,,,,,,,,,,,,,,,,,,,,,,P,More Stringent,2016
UWWTD_United-Kingdom_UrbanWasteWaterTreatmentPlant.fid-27ca0597_176cdf32d22_-15d4,2016_uww_UKENMI_ST_TP000248,UKENMI_ST_TP000248,UK5,BROUGHTON ASTLEY STW,1,,ISCON,UKF22,10932,11000,1,1,0,1,0,0,0,0,0,Addition of Chemical Dosing using Iron,P,P,,NR,P,P,,52.54808188,-1.22678594,POINT (-1.226785938 52.54808191682605),,,,,,,,,,,,,,,,,,,,,,,,,,,,,,,,,P,More Stringent,2016
UWWTD_United-Kingdom_UrbanWasteWaterTreatmentPlant.fid-27ca0597_176cdf32d22_-15d3,2016_uww_UKNI_TP00061,UKNI_TP00061,UK5,Moy,1,,ISCON,UKN11,3117,3300,1,1,0,0,0,0,0,0,0,,P,P,NR,NR,NR,NR,,54.45,-6.683,POINT (-6.682999999999998 54.450000034625),,,,,,,,,,,,,,,,,,,,,,,,,,,,,,,,,NR,Secondary,2016
UWWTD_United-Kingdom_UrbanWasteWaterTreatmentPlant.fid-27ca0597_176cdf32d22_-15d2,2016_uww_UKENSW_WXW_TP000088,UKENSW_WXW_TP000088,UK5,THINGLEY STW,1,,ISCON,UKK15,17507,23283,1,1,0,1,0,0,0,0,0,,P,P,,NR,P,P,,51.422605,-2.16362814,POINT (-2.1636281420000003 51.42260503793322),,,,,,,,,,,,,,,,,,,,,,,,,,,,,,,,,P,More Stringent,2016
UWWTD_United-Kingdom_UrbanWasteWaterTreatmentPlant.fid-27ca0597_176cdf32d22_-15d1,2016_uww_UKENSO_SW_TP000092,UKENSO_SW_TP000092,UK5,SHOREHAM / PORTSLADE   STW,1,,ISCON,UKJ27,54577,54577,1,1,0,0,0,0,0,0,0,,P,P,,NR,NR,P,,50.82899249,-0.22721678,POINT (-0.227216779 50.82899252845337),,,,,,,,,,,,,,,,,,,,,,,,,,,,,,,,,P,Secondary,2016
UWWTD_United-Kingdom_UrbanWasteWaterTreatmentPlant.fid-27ca0597_176cdf32d22_-15d0,2016_uww_UKENSW_WXW_TP000089,UKENSW_WXW_TP000089,UK5,THORNBURY STW,1,,ISCON,UKK12,13925,14140,1,1,0,0,0,0,0,0,0,,P,P,,NR,NR,P,,51.62738948,-2.53795255,POINT (-2.5379525489999994 51.627389517743346),,,,,,,,,,,,,,,,,,,,,,,,,,,,,,,,,P,Secondary,2016
UWWTD_United-Kingdom_UrbanWasteWaterTreatmentPlant.fid-27ca0597_176cdf32d22_-15cf,2016_uww_UKENSW_WXW_TP000090,UKENSW_WXW_TP000090,UK5,THORNFORD STW,1,,ISCON,UKK22,4520,6017,1,1,0,0,0,0,0,0,0,,P,P,,NR,NR,P,,50.91224237,-2.57987249,POINT (-2.5798724849999997 50.912242408383165),,,,,,,,,,,,,,,,,,,,,,,,,,,,,,,,,P,Secondary,2016
UWWTD_United-Kingdom_UrbanWasteWaterTreatmentPlant.fid-27ca0597_176cdf32d22_-15ce,2016_uww_UKENSW_WXW_TP000091,UKENSW_WXW_TP000091,UK5,TISBURY STW,1,,ISCON,UKK15,4407,6250,1,1,0,0,0,0,0,1,0,P removal (non-UWWTD),P,P,,NR,NR,P,,51.06808104,-2.06416911,POINT (-2.0641691049999995 51.068081078249335),,,,,,,,,,,,,,,,,,,,,,,,,,,,,,,,,P,More Stringent,2016
UWWTD_United-Kingdom_UrbanWasteWaterTreatmentPlant.fid-27ca0597_176cdf32d22_-15cd,2016_uww_UKENSW_WXW_TP000092,UKENSW_WXW_TP000092,UK5,TROWBRIDGE STW,1,,ISCON,UKK15,68453,87100,1,1,0,1,0,0,0,0,0,,P,P,,NR,P,P,,51.32135635,-2.21994997,POINT (-2.219949965 51.321356388025144),,,,,,,,,,,,,,,,,,,,,,,,,,,,,,,,,P,More Stringent,2016
UWWTD_United-Kingdom_UrbanWasteWaterTreatmentPlant.fid-27ca0597_176cdf32d22_-15cc,2016_uww_UKENAN_AW_TP000319,UKENAN_AW_TP000319,UK5,COWBIT STW,1,,ISCON,UKF30,2097,3300,1,1,0,0,0,0,0,0,0,,P,P,,NR,NR,P,,52.75443929,-0.09240706,POINT (-0.092407057 52.754439326606594),,,,,,,,,,,,,,,,,,,,,,,,,,,,,,,,,P,Secondary,2016
UWWTD_United-Kingdom_UrbanWasteWaterTreatmentPlant.fid-27ca0597_176cdf32d22_-15cb,2016_uww_UKENAN_AW_TP000321,UKENAN_AW_TP000321,UK5,FORNCETT END STW,1,,ISCON,UKH17,2914,2914,1,1,0,0,0,0,0,0,0,,P,P,,NR,NR,P,,52.49359207,1.15594861,POINT (1.1559486099999998 52.493592106883156),,,,,,,,,,,,,,,,,,,,,,,,,,,,,,,,,P,Secondary,2016
UWWTD_United-Kingdom_UrbanWasteWaterTreatmentPlant.fid-27ca0597_176cdf32d22_-15ca,2016_uww_UKENAN_AW_TP000322,UKENAN_AW_TP000322,UK5,SOUTH KILLINGHOLME STW,1,,ISCON,UKE13,2309,2944,1,1,0,0,0,0,0,0,0,,P,P,,NR,NR,P,,53.65253263,-0.25400208,POINT (-0.254002083 53.65253266559535),,,,,,,,,,,,,,,,,,,,,,,,,,,,,,,,,P,Secondary,2016
UWWTD_United-Kingdom_UrbanWasteWaterTreatmentPlant.fid-27ca0597_176cdf32d22_-15c9,2016_uww_UKENMI_ST_TP000081,UKENMI_ST_TP000081,UK5,EARL SHILTON STW,1,,ISCON,UKF22,25237,27500,1,1,0,1,0,0,0,1,0,,P,P,,NR,P,P,,52.57172532,-1.29896547,POINT (-1.298965467 52.57172535680115),,,,,,,,,,,,,,,,,,,,,,,,,,,,,,,,,P,More Stringent,2016
UWWTD_United-Kingdom_UrbanWasteWaterTreatmentPlant.fid-27ca0597_176cdf32d22_-15c8,2016_uww_UKENSW_WXW_TP000094,UKENSW_WXW_TP000094,UK5,WARMINSTER STW,1,,ISCON,UKK15,26165,34017,1,1,0,1,0,0,0,1,0,,P,P,,NR,P,P,,51.19299906,-2.18260304,POINT (-2.182603039 51.192999098139786),,,,,,,,,,,,,,,,,,,,,,,,,,,,,,,,,P,More Stringent,2016
UWWTD_United-Kingdom_UrbanWasteWaterTreatmentPlant.fid-27ca0597_176cdf32d22_-15c7,2016_uww_UKENSW_WXW_TP000095,UKENSW_WXW_TP000095,UK5,WATCHET STW,1,,ISCON,UKK23,10905,16750,1,1,0,0,0,0,0,0,0,,P,P,,NR,NR,P,,51.17808272,-3.34228212,POINT (-3.3422821230000004 51.17808275815298),,,,,,,,,,,,,,,,,,,,,,,,,,,,,,,,,P,Secondary,2016
UWWTD_United-Kingdom_UrbanWasteWaterTreatmentPlant.fid-27ca0597_176cdf32d22_-15c6,2016_uww_UKENSW_WXW_TP000096,UKENSW_WXW_TP000096,UK5,WELLINGTON STW,1,,ISCON,UKK23,15839,17267,1,1,0,0,0,0,0,0,0,,P,P,,NR,NR,P,,50.98918491,-3.24136132,POINT (-3.241361320000001 50.98918494831749),,,,,,,,,,,,,,,,,,,,,,,,,,,,,,,,,P,Secondary,2016
UWWTD_United-Kingdom_UrbanWasteWaterTreatmentPlant.fid-27ca0597_176cdf32d22_-15c5,2016_uww_UKENSW_WXW_TP000097,UKENSW_WXW_TP000097,UK5,WELLS STW,1,,ISCON,UKK23,15527,18921,1,1,0,1,0,0,0,0,0,P removal from 31/07/2014,P,P,,NR,P,P,,51.2047436,-2.66727695,POINT (-2.6672769490000006 51.20474363812938),,,,,,,,,,,,,,,,,,,,,,,,,,,,,,,,,P,More Stringent,2016
UWWTD_United-Kingdom_UrbanWasteWaterTreatmentPlant.fid-27ca0597_176cdf32d22_-15c4,2016_uww_UKENSW_WXW_TP000098,UKENSW_WXW_TP000098,UK5,BURNHAM-ON-SEA / HIGHBRIDGE   STW,1,,ISCON,UKK23,52793,60183,1,1,0,0,1,0,0,0,0,,P,P,,NR,NR,P,,51.21580871,-3.00604866,POINT (-3.006048657 51.21580874811958),,,,,,,,,,,,,,,,,,,,,,,,,,,,,,,,,P,More Stringent,2016
UWWTD_United-Kingdom_UrbanWasteWaterTreatmentPlant.fid-27ca0597_176cdf32d22_-15c3,2016_uww_UKENSW_WXW_TP000099,UKENSW_WXW_TP000099,UK5,WESTBURY STW,1,,ISCON,UKK15,26445,49633,1,1,0,1,0,0,0,0,0,,P,P,,NR,P,P,,51.27222648,-2.18832169,POINT (-2.1883216879999994 51.27222651806927),,,,,,,,,,,,,,,,,,,,,,,,,,,,,,,,,P,More Stringent,2016
UWWTD_United-Kingdom_UrbanWasteWaterTreatmentPlant.fid-27ca0597_176cdf32d22_-15c2,2016_uww_UKENSW_WXW_TP000100,UKENSW_WXW_TP000100,UK5,WESTON SUPER MARE STW,1,,ISCON,UKK12,104171,109225,1,1,0,0,1,0,0,0,0,,P,P,,NR,NR,P,,51.3078013,-2.98453163,POINT (-2.9845316259999994 51.30780133803734),,,,,,,,,,,,,,,,,,,,,,,,,,,,,,,,,P,More Stringent,2016
UWWTD_United-Kingdom_UrbanWasteWaterTreatmentPlant.fid-27ca0597_176cdf32d22_-15c1,2016_uww_UKENAN_AW_TP000020,UKENAN_AW_TP000020,UK5,BILLERICAY STW,1,,ISCON,UKH37,7674,7770,1,1,0,0,0,0,0,0,0,Tertiary Kaldnes (black box),P,P,,NR,NR,P,,51.61979469,0.45053817,POINT (0.450538169 51.619794727750495),,,,,,,,,,,,,,,,,,,,,,,,,,,,,,,,,P,Secondary,2016
UWWTD_United-Kingdom_UrbanWasteWaterTreatmentPlant.fid-27ca0597_176cdf32d22_-15c0,2016_uww_UKENSW_WXW_TP000101,UKENSW_WXW_TP000101,UK5,WEYMOUTH STW,1,,ISCON,UKK22,93303,107317,1,1,0,0,0,0,0,0,0,,P,P,,NR,NR,P,,50.5892443,-2.47628731,POINT (-2.476287309 50.589244338650474),,,,,,,,,,,,,,,,,,,,,,,,,,,,,,,,,P,Secondary,2016
UWWTD_United-Kingdom_UrbanWasteWaterTreatmentPlant.fid-27ca0597_176cdf32d22_-15bf,2016_uww_UKENSW_WXW_TP000102,UKENSW_WXW_TP000102,UK5,WICK ST LAWRENCE STW,1,,ISCON,UKK12,20648,24333,1,1,0,0,0,0,0,0,0,,P,P,,NR,NR,P,,51.39167355,-2.9233078,POINT (-2.9233078029999997 51.39167358796143),,,,,,,,,,,,,,,,,,,,,,,,,,,,,,,,,P,Secondary,2016
UWWTD_United-Kingdom_UrbanWasteWaterTreatmentPlant.fid-27ca0597_176cdf32d22_-15be,2016_uww_UKENSW_WXW_TP000103,UKENSW_WXW_TP000103,UK5,WIMBORNE STW,1,,ISCON,UKK22,22986,24933,1,1,0,0,1,0,0,0,0,,P,P,,NR,NR,P,,50.79129183,-1.96676107,POINT (-1.9667610740000006 50.791291868484876),,,,,,,,,,,,,,,,,,,,,,,,,,,,,,,,,P,More Stringent,2016
UWWTD_United-Kingdom_UrbanWasteWaterTreatmentPlant.fid-27ca0597_176cdf32d22_-15bd,2016_uww_UKENSW_WXW_TP000104,UKENSW_WXW_TP000104,UK5,WINCANTON STW,1,,ISCON,UKK23,7531,7715,1,1,0,0,0,0,0,0,0,,P,P,,NR,NR,P,,51.0446062,-2.41120555,POINT (-2.411205551 51.0446062382697),,,,,,,,,,,,,,,,,,,,,,,,,,,,,,,,,P,Secondary,2016
UWWTD_United-Kingdom_UrbanWasteWaterTreatmentPlant.fid-27ca0597_176cdf32d22_-15bc,2016_uww_UKENSW_WXW_TP000105,UKENSW_WXW_TP000105,UK5,WINSCOMBE STW,1,,ISCON,UKK12,3799,4271,1,1,0,0,0,0,0,0,0,,P,P,,NR,NR,P,,51.31569873,-2.86101439,POINT (-2.8610143870000004 51.31569876803023),,,,,,,,,,,,,,,,,,,,,,,,,,,,,,,,,P,Secondary,2016
UWWTD_United-Kingdom_UrbanWasteWaterTreatmentPlant.fid-27ca0597_176cdf32d22_-15bb,2016_uww_UKENAN_AW_TP000021,UKENAN_AW_TP000021,UK5,BILLINGHAY STW,1,,ISCON,UKF30,2297,4039,1,1,0,0,0,0,0,0,0,,P,P,,NR,NR,P,,53.08398111,-0.26688466,POINT (-0.2668846599999999 53.08398114624598),,,,,,,,,,,,,,,,,,,,,,,,,,,,,,,,,P,Secondary,2016
UWWTD_United-Kingdom_UrbanWasteWaterTreatmentPlant.fid-27ca0597_176cdf32d22_-15ba,2016_uww_UKENSW_WXW_TP000106,UKENSW_WXW_TP000106,UK5,WIVELISCOMBE {HILLSMOOR) STW,1,,ISCON,UKK23,2595,5583,1,1,0,0,0,0,0,0,0,,P,P,,NR,NR,P,,51.03887546,-3.3027382,POINT (-3.3027381980000006 51.038875498274656),,,,,,,,,,,,,,,,,,,,,,,,,,,,,,,,,P,Secondary,2016
UWWTD_United-Kingdom_UrbanWasteWaterTreatmentPlant.fid-27ca0597_176cdf32d22_-15b9,2016_uww_UKENAN_AW_TP000022,UKENAN_AW_TP000022,UK5,BOCKING STW,1,,ISCON,UKH34,21099,21099,1,1,1,1,0,0,0,0,0,,P,P,,P,P,P,,51.89052632,0.57975572,POINT (0.579755723 51.8905263574917),,,,,,,,,,,,,,,,,,,,,,,,,,,,,,,,,P,More Stringent,2016
UWWTD_United-Kingdom_UrbanWasteWaterTreatmentPlant.fid-27ca0597_176cdf32d22_-15b8,2016_uww_UKENSW_WXW_TP000107,UKENSW_WXW_TP000107,UK5,WOOL STW,1,,ISCON,UKK22,9608,15700,1,1,0,0,0,0,0,0,0,P removal (non-UWWTD),P,P,,NR,NR,P,,50.68544447,-2.254428,POINT (-2.254427995 50.68544450857231),,,,,,,,,,,,,,,,,,,,,,,,,,,,,,,,,P,Secondary,2016
UWWTD_United-Kingdom_UrbanWasteWaterTreatmentPlant.fid-27ca0597_176cdf32d22_-15b7,2016_uww_UKENSW_WXW_TP000108,UKENSW_WXW_TP000108,UK5,WOOTTON BASSETT STW,1,,ISCON,UKK15,13739,14967,1,1,0,1,0,0,0,1,0,,P,P,,NR,P,P,,51.53075118,-1.89544885,POINT (-1.8954488459999996 51.53075121783361),,,,,,,,,,,,,,,,,,,,,,,,,,,,,,,,,P,More Stringent,2016
UWWTD_United-Kingdom_UrbanWasteWaterTreatmentPlant.fid-27ca0597_176cdf32d22_-15b6,2016_uww_UKENMI_ST_TP000082,UKENMI_ST_TP000082,UK5,EAST BRIDGFORD STW,1,,ISCON,UKF16,2068,2600,1,1,0,0,0,0,0,0,0,,P,P,,NR,NR,P,,52.98351638,-0.98399043,POINT (-0.9839904339999999 52.983516416357226),,,,,,,,,,,,,,,,,,,,,,,,,,,,,,,,,P,Secondary,2016
UWWTD_United-Kingdom_UrbanWasteWaterTreatmentPlant.fid-27ca0597_176cdf32d22_-15b5,2016_uww_UKENSW_WXW_TP000109,UKENSW_WXW_TP000109,UK5,WOTTON UNDER EDGE STW,1,,ISCON,UKK13,5911,12257,1,1,0,0,0,0,0,0,0,,P,P,,NR,NR,P,,51.63134843,-2.37835091,POINT (-2.378350906 51.631348467739635),,,,,,,,,,,,,,,,,,,,,,,,,,,,,,,,,P,Secondary,2016
UWWTD_United-Kingdom_UrbanWasteWaterTreatmentPlant.fid-27ca0597_176cdf32d22_-15b4,2016_uww_UKENMI_ST_TP000083,UKENMI_ST_TP000083,UK5,EAST LEAKE STW,1,,ISCON,UKF16,9365,9500,1,1,0,0,0,0,0,1,0,,P,P,,NR,NR,P,,52.8320902,-1.20245823,POINT (-1.2024582300000002 52.83209023652273),,,,,,,,,,,,,,,,,,,,,,,,,,,,,,,,,P,More Stringent,2016
UWWTD_United-Kingdom_UrbanWasteWaterTreatmentPlant.fid-27ca0597_176cdf32d22_-15b3,2016_uww_UKENSW_WXW_TP000110,UKENSW_WXW_TP000110,UK5,WRINGTON STW,1,,ISCON,UKK12,2382,3050,1,1,0,0,0,0,0,0,0,,P,P,,NR,NR,P,,51.35994201,-2.77021127,POINT (-2.7702112719999996 51.35994204799026),,,,,,,,,,,,,,,,,,,,,,,,,,,,,,,,,P,Secondary,2016
UWWTD_United-Kingdom_UrbanWasteWaterTreatmentPlant.fid-27ca0597_176cdf32d22_-15b2,2016_uww_UKENMI_ST_TP000084,UKENMI_ST_TP000084,UK5,EAST MARKHAM STW,1,,ISCON,UKF15,3759,13000,1,1,0,0,0,0,0,0,0,,P,P,,NR,NR,P,,53.24483117,-0.87321057,POINT (-0.8732105680000001 53.244831206065506),,,,,,,,,,,,,,,,,,,,,,,,,,,,,,,,,P,Secondary,2016
UWWTD_United-Kingdom_UrbanWasteWaterTreatmentPlant.fid-27ca0597_176cdf32d22_-15b1,2016_uww_UKENSW_WXW_TP000111,UKENSW_WXW_TP000111,UK5,YEOVIL STW,1,,ISCON,UKK23,55674,68917,1,1,0,1,0,0,0,0,0,P removal from 31/07/2013,P,P,,NR,P,P,,50.94374139,-2.61015528,POINT (-2.6101552800000003 50.94374142835638),,,,,,,,,,,,,,,,,,,,,,,,,,,,,,,,,P,More Stringent,2016
UWWTD_United-Kingdom_UrbanWasteWaterTreatmentPlant.fid-27ca0597_176cdf32d22_-15b0,2016_uww_UKENSW_WXW_TP000112,UKENSW_WXW_TP000112,UK5,BOWERHILL STW,1,,ISCON,UKK15,8061,10717,1,1,0,1,0,0,0,0,0,,P,P,,NR,P,P,,51.35924429,-2.14027907,POINT (-2.140279074 51.35924432799089),,,,,,,,,,,,,,,,,,,,,,,,,,,,,,,,,P,More Stringent,2016
UWWTD_United-Kingdom_UrbanWasteWaterTreatmentPlant.fid-27ca0597_176cdf32d22_-15af,2016_uww_UKNI_TP00014,UKNI_TP00014,UK5,Ballymena (Tullaghgarley),1,,ISCON,UKN15,113825,150000,1,1,0,1,0,0,0,0,0,,P,P,NR,NR,P,NR,,54.84,-6.304,POINT (-6.304 54.84000003412726),,,,,,,,,,,EPRTR Code WA_6618_2007,,,,,,,,,,,,,,,,,,,,,,NR,More Stringent,2016
UWWTD_United-Kingdom_UrbanWasteWaterTreatmentPlant.fid-27ca0597_176cdf32d22_-15ae,2016_uww_UKENSO_SW_TP000088,UKENSO_SW_TP000088,UK5,HORSHAM STW,1,,ISCON,UKJ28,77717,79207,1,1,0,1,0,0,0,1,0,,P,P,,NR,P,P,,51.05508648,-0.35997406,POINT (-0.359974056 51.05508651826062),,,,,,,,,,,,,,,,,,,,,,,,,,,,,,,,,P,More Stringent,2016
UWWTD_United-Kingdom_UrbanWasteWaterTreatmentPlant.fid-27ca0597_176cdf32d22_-15ad,2016_uww_UKENSW_WXW_TP000113,UKENSW_WXW_TP000113,UK5,COLERNE STW,1,,ISCON,UKK15,2170,4616,1,1,0,0,0,0,0,0,0,,P,P,,NR,NR,P,,51.43466949,-2.2553077,POINT (-2.2553077039999994 51.43466952792219),,,,,,,,,,,,,,,,,,,,,,,,,,,,,,,,,P,Secondary,2016
UWWTD_United-Kingdom_UrbanWasteWaterTreatmentPlant.fid-27ca0597_176cdf32d22_-15ac,2016_uww_UKENSW_WXW_TP000115,UKENSW_WXW_TP000115,UK5,CANNINGTON STW,1,,ISCON,UKK23,2799,2900,1,1,0,0,0,0,0,0,0,,P,P,,NR,NR,P,,51.1480969,-3.04703676,POINT (-3.0470367610000006 51.1480969381794),,,,,,,,,,,,,,,,,,,,,,,,,,,,,,,,,P,Secondary,2016
UWWTD_United-Kingdom_UrbanWasteWaterTreatmentPlant.fid-27ca0597_176cdf32d22_-15ab,2016_uww_UKENSO_SW_TP000089,UKENSO_SW_TP000089,UK5,LUXFORD LN-EAST GRINSTEAD STW,1,,ISCON,UKJ28,9602,9602,1,1,0,0,0,0,0,0,0,,P,P,,NR,NR,P,,51.10836879,0.00417942,POINT (0.004179417 51.10836882821424),,,,,,,,,,,,,,,,,,,,,,,,,,,,,,,,,P,Secondary,2016
UWWTD_United-Kingdom_UrbanWasteWaterTreatmentPlant.fid-27ca0597_176cdf32d22_-15aa,2016_uww_UKENSW_WXW_TP000117,UKENSW_WXW_TP000117,UK5,SHREWTON STW,1,,ISCON,UKK15,1895,2617,1,1,0,0,0,0,0,0,0,P removal (non-UWWTD),P,P,,NR,NR,P,,51.18286426,-1.89709371,POINT (-1.8970937049999999 51.18286429814876),,,,,,,,,,,,,,,,,,,,,,,,,,,,,,,,,P,Secondary,2016
UWWTD_United-Kingdom_UrbanWasteWaterTreatmentPlant.fid-27ca0597_176cdf32d22_-15a9,2016_uww_UKSC_TP00087,UKSC_TP00087,UK5,GRANTOWN ON SPEY WWTP,1,,ISCON,UKM62,3981,6599,1,1,0,0,0,0,0,0,0,,P,P,,NR,NR,,,57.32244,-3.61282,POINT (-3.6128200000000015 57.322440030649304),,,,,,,,,,,,,,,,,,,,,,,,,,,,,,,,,,Secondary,2016
UWWTD_United-Kingdom_UrbanWasteWaterTreatmentPlant.fid-27ca0597_176cdf32d22_-15a8,2016_uww_UKENSW_WXW_TP000118,UKENSW_WXW_TP000118,UK5,GREAT WISHFORD STW,1,,ISCON,UKK15,2109,2283,1,1,0,0,0,0,0,0,0,P removal (non-UWWTD),P,P,,NR,NR,P,,51.10281728,-1.87827541,POINT (-1.8782754130000001 51.102817318219074),,,,,,,,,,,,,,,,,,,,,,,,,,,,,,,,,P,Secondary,2016
UWWTD_United-Kingdom_UrbanWasteWaterTreatmentPlant.fid-27ca0597_176cdf32d22_-15a7,2016_uww_UKSC_TP00088,UKSC_TP00088,UK5,GRETNA S.T.W.,1,,ISCON,UKM92,8190,6000,1,1,0,0,0,0,0,0,0,,P,P,,NR,NR,,,54.98824,-3.08139,POINT (-3.0813900000000003 54.988240033934254),,,,,,,,,,,,,,,,,,,,,,,,,,,,,,,,,,Secondary,2016
UWWTD_United-Kingdom_UrbanWasteWaterTreatmentPlant.fid-27ca0597_176cdf32d22_-15a6,2016_uww_UKENSW_WXW_TP000121,UKENSW_WXW_TP000121,UK5,COLEFORD STW,1,,ISCON,UKK23,2011,3087,1,1,0,0,0,0,0,0,0,,P,P,,NR,NR,P,,51.23916008,-2.44516944,POINT (-2.445169444 51.2391601180988),,,,,,,,,,,,,,,,,,,,,,,,,,,,,,,,,P,Secondary,2016
UWWTD_United-Kingdom_UrbanWasteWaterTreatmentPlant.fid-27ca0597_176cdf32d22_-15a5,2016_uww_UKENSW_VE_TP000001,UKENSW_VE_TP000001,UK5,TIDWORTH GARRISON STW FE,1,,ISCON,UKK15,13644,12850,1,1,0,0,0,0,0,0,0,N/A,P,P,,NR,NR,P,,51.22138452,-1.67162644,POINT (-1.671626435 51.221384558114615),,,,,,,,,,,,,,,,,,,,,,,,,,,,,,,,,P,Secondary,2016
UWWTD_United-Kingdom_UrbanWasteWaterTreatmentPlant.fid-27ca0597_176cdf32d22_-15a4,2016_uww_UKSC_TP00089,UKSC_TP00089,UK5,GUARDBRIDGE WWTW,1,,ISCON,UKM72,4906,5265,1,1,0,0,0,0,0,0,0,,P,P,,NR,NR,,,56.3674,-2.88919,POINT (-2.8891900000000006 56.36740003204543),,,,,,,,,,,,,,,,,,,,,,,,,,,,,,,,,,Secondary,2016
UWWTD_United-Kingdom_UrbanWasteWaterTreatmentPlant.fid-27ca0597_176cdf32d22_-15a3,2016_uww_UKENAN_AW_TP000023,UKENAN_AW_TP000023,UK5,BOSTON STW,1,,ISCON,UKF30,49689,55556,1,1,0,0,0,0,0,0,0,,P,P,,NR,NR,P,,52.94919352,0.01826465,POINT (0.018264653 52.94919355639497),,,,,,,,,,,,,,,,,,,,,,,,,,,,,,,,,P,Secondary,2016
UWWTD_United-Kingdom_UrbanWasteWaterTreatmentPlant.fid-27ca0597_176cdf32d22_-15a2,2016_uww_UKENSW_WXW_TP000126,UKENSW_WXW_TP000126,UK5,SEEND STW,0,,ISCON,UKK15,99,2197,1,1,0,0,0,0,0,0,0,,P,P,,NR,NR,P,,51.34977694,-2.06902945,POINT (-2.069029445 51.34977697799946),,,,,,,,,,,"Below 2000 PE threshold, so no longer a qualifying discharge under UWWTD",,,,,,,,,,,,,,,,,,,,,,P,Secondary,2016
UWWTD_United-Kingdom_UrbanWasteWaterTreatmentPlant.fid-27ca0597_176cdf32d22_-15a1,2016_uww_UKENMI_ST_TP000249,UKENMI_ST_TP000249,UK5,COLWALL STW,1,,ISCON,UKG11,2247,3000,1,1,0,0,0,0,0,0,0,,P,P,,NR,NR,P,,52.08437054,-2.38552963,POINT (-2.3855296259999994 52.08437057730089),,,,,,,,,,,,,,,,,,,,,,,,,,,,,,,,,P,Secondary,2016
UWWTD_United-Kingdom_UrbanWasteWaterTreatmentPlant.fid-27ca0597_176cdf32d22_-15a0,2016_uww_UKNI_TP00062,UKNI_TP00062,UK5,Newcastle,1,,ISCON,UKN08,16236,20000,1,1,0,0,1,0,0,0,0,,P,P,NR,NR,NR,NR,,54.196,-5.883,POINT (-5.883 54.19600003494112),,,,,,,,,,,,,,,,,,,,,,,,,,,,,,,,,NR,More Stringent,2016
UWWTD_United-Kingdom_UrbanWasteWaterTreatmentPlant.fid-27ca0597_176cdf32d22_-159f,2016_uww_UKENAN_AW_TP000024,UKENAN_AW_TP000024,UK5,BOTTISHAM STW,1,,ISCON,UKH12,3735,3912,1,1,0,0,0,0,0,0,0,,P,P,,NR,NR,P,,52.2281806,0.25915652,POINT (0.259156519 52.22818063715638),,,,,,,,,,,,,,,,,,,,,,,,,,,,,,,,,P,Secondary,2016
UWWTD_United-Kingdom_UrbanWasteWaterTreatmentPlant.fid-27ca0597_176cdf32d22_-159e,2016_uww_UKENMI_ST_TP000198,UKENMI_ST_TP000198,UK5,SOUTH NORMANTON STW,1,,ISCON,UKF12,7336,7500,1,1,0,0,0,0,0,0,0,,P,P,,NR,NR,P,,53.11443322,-1.33140879,POINT (-1.331408794 53.11443325621205),,,,,,,,,,,,,,,,,,,,,,,,,,,,,,,,,P,Secondary,2016
UWWTD_United-Kingdom_UrbanWasteWaterTreatmentPlant.fid-27ca0597_176cdf32d22_-159d,2016_uww_UKENMI_ST_TP000199,UKENMI_ST_TP000199,UK5,SPERNAL   STW,1,,ISCON,UKG13,93456,93456,1,1,0,1,0,0,0,1,0,,P,P,,NR,P,P,,52.26178046,-1.87748018,POINT (-1.87748018 52.26178049712225),,,,,,,,,,,,,,,,,,,,,,,,,,,,,,,,,P,More Stringent,2016
UWWTD_United-Kingdom_UrbanWasteWaterTreatmentPlant.fid-27ca0597_176cdf32d22_-159c,2016_uww_UKENMI_ST_TP000201,UKENMI_ST_TP000201,UK5,STANTON   STW,1,,ISCON,UKF13,36737,36765,1,1,0,1,0,0,0,0,0,,P,P,,NR,P,P,,52.78585539,-1.63893079,POINT (-1.6389307920000005 52.78585542657275),,,,,,,,,,,,,,,,,,,,,,,,,,,,,,,,,P,More Stringent,2016
UWWTD_United-Kingdom_UrbanWasteWaterTreatmentPlant.fid-27ca0597_176cdf32d22_-159b,2016_uww_UKENMI_ST_TP000202,UKENMI_ST_TP000202,UK5,STAPLEFORD STW,1,,ISCON,UKF16,27785,32500,1,1,0,1,0,0,0,0,0,,P,P,,NR,P,P,,52.91770583,-1.27822362,POINT (-1.278223616 52.91770586642948),,,,,,,,,,,,,,,,,,,,,,,,,,,,,,,,,P,More Stringent,2016
UWWTD_United-Kingdom_UrbanWasteWaterTreatmentPlant.fid-27ca0597_176cdf32d22_-159a,2016_uww_UKENMI_ST_TP000203,UKENMI_ST_TP000203,UK5,STAUNTON PITTS MILL STW,1,,ISCON,UKK13,3100,3250,1,1,0,0,0,0,0,1,0,,P,P,,NR,NR,P,,51.95269222,-2.31295382,POINT (-2.312953822 51.95269225743101),,,,,,,,,,,,,,,,,,,,,,,,,,,,,,,,,P,More Stringent,2016
UWWTD_United-Kingdom_UrbanWasteWaterTreatmentPlant.fid-27ca0597_176cdf32d22_-1599,2016_uww_UKENMI_ST_TP000204,UKENMI_ST_TP000204,UK5,STOKE PRIOR STW,1,,ISCON,UKG12,3823,4500,1,1,0,0,0,0,0,1,0,,P,P,,NR,NR,P,,52.29758672,-2.09469517,POINT (-2.09469517 52.29758675708573),,,,,,,,,,,,,,,,,,,,,,,,,,,,,,,,,P,More Stringent,2016
UWWTD_United-Kingdom_UrbanWasteWaterTreatmentPlant.fid-27ca0597_176cdf32d22_-1598,2016_uww_UKENMI_ST_TP000205,UKENMI_ST_TP000205,UK5,STONEY STANTON STW,1,,ISCON,UKF22,12375,14000,1,1,0,1,0,0,0,1,0,,P,P,,NR,P,P,,52.55161334,-1.25887538,POINT (-1.2588753770000005 52.551613376822345),,,,,,,,,,,,,,,,,,,,,,,,,,,,,,,,,P,More Stringent,2016
UWWTD_United-Kingdom_UrbanWasteWaterTreatmentPlant.fid-27ca0597_176cdf32d22_-1597,2016_uww_UKENMI_ST_TP000206,UKENMI_ST_TP000206,UK5,STRATFORD  STW,1,,ISCON,UKG13,34203,80000,1,1,0,1,0,0,0,0,0,,P,P,,NR,P,P,,52.17533677,-1.73835697,POINT (-1.738356967 52.17533680720976),,,,,,,,,,,,,,,,,,,,,,,,,,,,,,,,,P,More Stringent,2016
UWWTD_United-Kingdom_UrbanWasteWaterTreatmentPlant.fid-27ca0597_176cdf32d22_-1596,2016_uww_UKENMI_ST_TP000207,UKENMI_ST_TP000207,UK5,STOKE ON TRENT (STRONGFORD) STW,1,,ISCON,UKG23,358863,400000,1,1,0,1,0,0,0,0,0,NSAF,P,P,,NR,P,P,,52.94870061,-2.18273334,POINT (-2.182733337 52.948700646395515),,,,,,,,,,,,,,,,,,,,,,,,,,,,,,,,,P,More Stringent,2016
UWWTD_United-Kingdom_UrbanWasteWaterTreatmentPlant.fid-27ca0597_176cdf32d22_-1595,2016_uww_UKENNW_UU_TP000070,UKENNW_UU_TP000070,UK5,KENDAL STW,1,,ISCON,UKD12,62440,80043,1,1,0,1,0,0,0,0,0,Ferric dosing,P,P,,NR,P,P,,54.31041692,-2.74388521,POINT (-2.743885212000001 54.31041695479952),,,,,,,,,,,,,,,,,,,,,,,,,,,,,,,,,P,More Stringent,2016
UWWTD_United-Kingdom_UrbanWasteWaterTreatmentPlant.fid-27ca0597_176cdf32d22_-1594,2016_uww_UKENNW_UU_TP000071,UKENNW_UU_TP000071,UK5,KESWICK STW,1,,ISCON,UKD11,6597,8806,1,1,0,1,0,0,0,0,0,Ferric dosing,P,P,,NR,P,P,,54.61372333,-3.15731795,POINT (-3.1573179540000003 54.613723364417844),,,,,,,,,,,,,,,,,,,,,,,,,,,,,,,,,P,More Stringent,2016
UWWTD_United-Kingdom_UrbanWasteWaterTreatmentPlant.fid-27ca0597_176cdf32d22_-1593,2016_uww_UKENNW_UU_TP000072,UKENNW_UU_TP000072,UK5,KIDSGROVE STW,1,,ISCON,UKD62,25470,26091,1,1,0,1,0,0,0,1,0,Ferric Dosing,P,P,,NR,P,P,,53.09382625,-2.25771401,POINT (-2.257714013 53.09382628623502),,,,,,,,,,,,,,,,,,,,,,,,,,,,,,,,,P,More Stringent,2016
UWWTD_United-Kingdom_UrbanWasteWaterTreatmentPlant.fid-27ca0597_176cdf32d22_-1592,2016_uww_UKENNW_UU_TP000073,UKENNW_UU_TP000073,UK5,KINGSLEY STW,1,,ISCON,UKD63,3333,3770,1,1,0,0,0,0,0,0,0,,P,P,,NR,NR,P,,53.26591018,-2.64961109,POINT (-2.6496110889999995 53.265910216041654),,,,,,,,,,,,,,,,,,,,,,,,,,,,,,,,,P,Secondary,2016
UWWTD_United-Kingdom_UrbanWasteWaterTreatmentPlant.fid-27ca0597_176cdf32d22_-1591,2016_uww_UKENNW_UU_TP000074,UKENNW_UU_TP000074,UK5,KIRKBY STEPHEN STW,1,,ISCON,UKD12,2846,2885,1,1,0,0,0,0,0,0,0,,P,P,,NR,NR,P,,54.48757196,-2.3520669,POINT (-2.352066895 54.487571994577685),,,,,,,,,,,,,,,,,,,,,,,,,,,,,,,,,P,Secondary,2016
UWWTD_United-Kingdom_UrbanWasteWaterTreatmentPlant.fid-27ca0597_176cdf32d22_-1590,2016_uww_UKENNW_UU_TP000075,UKENNW_UU_TP000075,UK5,KNUTSFORD STW,1,,ISCON,UKD62,14178,14178,1,1,0,0,0,0,0,0,0,,P,P,,NR,NR,P,,53.3156171,-2.34971083,POINT (-2.3497108319999995 53.315617135985185),,,,,,,,,,,,,,,,,,,,,,,,,,,,,,,,,P,Secondary,2016
UWWTD_United-Kingdom_UrbanWasteWaterTreatmentPlant.fid-27ca0597_176cdf32d22_-158f,2016_uww_UKENNW_UU_TP000076,UKENNW_UU_TP000076,UK5,LANCASTER (STODDAY) STW,1,,ISCON,UKD44,100660,106332,1,1,0,0,1,0,0,0,0,UV treatment,P,P,,NR,NR,P,,54.02152757,-2.83029976,POINT (-2.830299756 54.021527605154496),,,,,,,,,,,,,,,,,,,,,,,,,,,,,,,,,P,More Stringent,2016
UWWTD_United-Kingdom_UrbanWasteWaterTreatmentPlant.fid-27ca0597_176cdf32d22_-158e,2016_uww_UKENNW_UU_TP000077,UKENNW_UU_TP000077,UK5,LAWTON GATE STW,1,,ISCON,UKD62,6811,7255,1,1,0,0,0,0,0,0,0,,P,P,,NR,NR,P,,53.10526572,-2.28675983,POINT (-2.2867598329999996 53.105265756222295),,,,,,,,,,,,,,,,,,,,,,,,,,,,,,,,,P,Secondary,2016
UWWTD_United-Kingdom_UrbanWasteWaterTreatmentPlant.fid-27ca0597_176cdf32d22_-158d,2016_uww_UKENNW_UU_TP000078,UKENNW_UU_TP000078,UK5,LEIGH STW,1,,ISCON,UKD36,80282,81857,1,1,0,1,0,0,0,0,0,Ferric Dosing,P,P,,NR,P,P,,53.48660365,-2.5167416,POINT (-2.516741598 53.486603685788886),,,,,,,,,,,,,,,,,,,,,,,,,,,,,,,,,P,More Stringent,2016
UWWTD_United-Kingdom_UrbanWasteWaterTreatmentPlant.fid-27ca0597_176cdf32d22_-158c,2016_uww_UKENNW_UU_TP000079,UKENNW_UU_TP000079,UK5,LEYLAND STW,1,,ISCON,UKD45,47699,47699,1,1,0,1,0,0,0,0,0,Ferric dosing,P,P,,NR,P,P,,53.68209379,-2.72594995,POINT (-2.725949948 53.682093825560564),,,,,,,,,,,,,,,,,,,,,,,,,,,,,,,,,P,More Stringent,2016
UWWTD_United-Kingdom_UrbanWasteWaterTreatmentPlant.fid-27ca0597_176cdf32d22_-158b,2016_uww_UKENNW_UU_TP000080,UKENNW_UU_TP000080,UK5,LIVERPOOL SOUTH [WOOLTON]) STW,1,,ISCON,UKD71,62881,63444,1,1,0,0,0,0,0,0,0,,P,P,,NR,NR,P,,53.39417893,-2.83104285,POINT (-2.8310428480000005 53.3941789658954),,,,,,,,,,,,,,,,,,,,,,,,,,,,,,,,,P,Secondary,2016
UWWTD_United-Kingdom_UrbanWasteWaterTreatmentPlant.fid-27ca0597_176cdf32d22_-158a,2016_uww_UKENNW_UU_TP000081,UKENNW_UU_TP000081,UK5,LONGTON STW,1,,ISCON,UKD45,13793,14462,1,1,0,0,0,0,0,0,0,,P,P,,NR,NR,P,,53.72121603,-2.80663969,POINT (-2.80663969 53.72121606551439),,,,,,,,,,,,,,,,,,,,,,,,,,,,,,,,,P,Secondary,2016
UWWTD_United-Kingdom_UrbanWasteWaterTreatmentPlant.fid-27ca0597_176cdf32d22_-1589,2016_uww_UKENNW_UU_TP000082,UKENNW_UU_TP000082,UK5,LONGTOWN STW,1,,ISCON,UKD12,2575,2839,1,1,0,0,0,0,0,0,0,,P,P,,NR,NR,P,,55.00649899,-2.97858248,POINT (-2.9785824810000006 55.00649902391032),,,,,,,,,,,,,,,,,,,,,,,,,,,,,,,,,P,Secondary,2016
UWWTD_United-Kingdom_UrbanWasteWaterTreatmentPlant.fid-27ca0597_176cdf32d22_-1588,2016_uww_UKENNW_UU_TP000083,UKENNW_UU_TP000083,UK5,LOW MARPLE STW,1,,ISCON,UKD35,5788,5866,1,1,0,0,0,0,0,0,0,,P,P,,NR,NR,P,,53.41130448,-2.06045202,POINT (-2.060452022 53.41130451587573),,,,,,,,,,,,,,,,,,,,,,,,,,,,,,,,,P,Secondary,2016
UWWTD_United-Kingdom_UrbanWasteWaterTreatmentPlant.fid-27ca0597_176cdf32d22_-1587,2016_uww_UKENNW_UU_TP000084,UKENNW_UU_TP000084,UK5,MACCLESFIELD STW,1,,ISCON,UKD62,74029,75410,1,1,0,0,0,0,0,0,0,,P,P,,NR,NR,P,,53.30065565,-2.15737612,POINT (-2.1573761149999995 53.30065568600221),,,,,,,,,,,,,,,,,,,,,,,,,,,,,,,,,P,Secondary,2016
UWWTD_United-Kingdom_UrbanWasteWaterTreatmentPlant.fid-27ca0597_176cdf32d22_-1586,2016_uww_UKENNW_UU_TP000085,UKENNW_UU_TP000085,UK5,MADELEY STW,1,,ISCON,UKG24,5203,5359,1,1,0,0,0,0,0,0,0,,P,P,,NR,NR,P,,53.00263732,-2.34419386,POINT (-2.3441938630000005 53.00263735633613),,,,,,,,,,,,,,,,,,,,,,,,,,,,,,,,,P,Secondary,2016
UWWTD_United-Kingdom_UrbanWasteWaterTreatmentPlant.fid-27ca0597_176cdf32d22_-1585,2016_uww_UKENNW_UU_TP000086,UKENNW_UU_TP000086,UK5,MELLING STW,1,,ISCON,UKD73,2916,2916,1,1,0,0,0,0,0,0,0,,P,P,,NR,NR,P,,53.48335612,-2.92177216,POINT (-2.9217721569999995 53.483356155792656),,,,,,,,,,,,,,,,,,,,,,,,,,,,,,,,,P,Secondary,2016
UWWTD_United-Kingdom_UrbanWasteWaterTreatmentPlant.fid-27ca0597_176cdf32d22_-1584,2016_uww_UKENNW_UU_TP000087,UKENNW_UU_TP000087,UK5,MERE BROW STW,1,,ISCON,UKD47,4191,4522,1,1,0,0,0,0,0,0,0,,P,P,,NR,NR,P,,53.66313364,-2.87317759,POINT (-2.873177588 53.663133675582884),,,,,,,,,,,,,,,,,,,,,,,,,,,,,,,,,P,Secondary,2016
UWWTD_United-Kingdom_UrbanWasteWaterTreatmentPlant.fid-27ca0597_176cdf32d22_-1583,2016_uww_UKENNW_UU_TP000088,UKENNW_UU_TP000088,UK5,MIDDLEWICH STW,1,,ISCON,UKD62,16217,17722,1,1,0,1,0,0,0,1,0,Aluminium Salts/Ferric Dosing,P,P,,NR,P,P,,53.19228913,-2.43222181,POINT (-2.4322218090000005 53.19228916612478),,,,,,,,,,,,,,,,,,,,,,,,,,,,,,,,,P,More Stringent,2016
UWWTD_United-Kingdom_UrbanWasteWaterTreatmentPlant.fid-27ca0597_176cdf32d22_-1582,2016_uww_UKENNW_UU_TP000089,UKENNW_UU_TP000089,UK5,MILLOM STW,1,,ISCON,UKD11,7707,8631,1,1,0,0,1,0,0,0,0,UV treatment,P,P,,NR,NR,P,,54.20405418,-3.23992303,POINT (-3.2399230270000015 54.20405421493121),,,,,,,,,,,,,,,,,,,,,,,,,,,,,,,,,P,More Stringent,2016
UWWTD_United-Kingdom_UrbanWasteWaterTreatmentPlant.fid-27ca0597_176cdf32d22_-1581,2016_uww_UKENNW_UU_TP000090,UKENNW_UU_TP000090,UK5,MILNTHORPE STW,1,,ISCON,UKD12,8694,8694,1,1,0,0,0,0,0,0,0,,P,P,,NR,NR,P,,54.22727719,-2.78717973,POINT (-2.7871797250000006 54.22727722490255),,,,,,,,,,,,,,,,,,,,,,,,,,,,,,,,,P,Secondary,2016
UWWTD_United-Kingdom_UrbanWasteWaterTreatmentPlant.fid-27ca0597_176cdf32d22_-1580,2016_uww_UKENNW_UU_TP000091,UKENNW_UU_TP000091,UK5,MOBBERLEY STW,1,,ISCON,UKD62,2830,2980,1,1,0,0,0,0,0,0,0,,P,P,,NR,NR,P,,53.31909832,-2.32662181,POINT (-2.3266218079999996 53.31909835598122),,,,,,,,,,,,,,,,,,,,,,,,,,,,,,,,,P,Secondary,2016
UWWTD_United-Kingdom_UrbanWasteWaterTreatmentPlant.fid-27ca0597_176cdf32d22_-157f,2016_uww_UKENNW_UU_TP000092,UKENNW_UU_TP000092,UK5,MORECAMBE STW,1,,ISCON,UKD44,35442,47283,1,1,0,0,1,0,0,0,0,UV treatment,P,P,,NR,NR,P,,54.02149982,-2.89671106,POINT (-2.89671106 54.02149985515454),,,,,,,,,,,,,,,,,,,,,,,,,,,,,,,,,P,More Stringent,2016
UWWTD_United-Kingdom_UrbanWasteWaterTreatmentPlant.fid-27ca0597_176cdf32d22_-157e,2016_uww_UKENNW_UU_TP000093,UKENNW_UU_TP000093,UK5,MOSSLEY STW,1,,ISCON,UKD35,12784,13980,1,1,0,1,0,0,0,0,0,Ferric Dosing,P,P,,NR,P,P,,53.50082031,-2.04006231,POINT (-2.0400623140000005 53.50082034577242),,,,,,,,,,,,,,,,,,,,,,,,,,,,,,,,,P,More Stringent,2016
UWWTD_United-Kingdom_UrbanWasteWaterTreatmentPlant.fid-27ca0597_176cdf32d22_-157d,2016_uww_UKENNW_UU_TP000094,UKENNW_UU_TP000094,UK5,NANTWICH STW,1,,ISCON,UKD62,18759,19074,1,1,0,0,0,0,0,0,0,,P,P,,NR,NR,P,,53.08357167,-2.51040614,POINT (-2.5104061439999996 53.083571706246424),,,,,,,,,,,,,,,,,,,,,,,,,,,,,,,,,P,Secondary,2016
UWWTD_United-Kingdom_UrbanWasteWaterTreatmentPlant.fid-27ca0597_176cdf32d22_-157c,2016_uww_UKENNW_UU_TP000116,UKENNW_UU_TP000116,UK5,STOCKPORT STW,1,,ISCON,UKD35,176010,191176,1,1,0,0,0,0,0,0,0,Nitrifying activated sludge plant,P,P,,NR,NR,P,,53.40503254,-2.20424018,POINT (-2.204240181 53.40503257588295),,,,,,,,,,,,,,,,,,,,,,,,,,,,,,,,,P,Secondary,2016
UWWTD_United-Kingdom_UrbanWasteWaterTreatmentPlant.fid-27ca0597_176cdf32d22_-157b,2016_uww_UKENNW_UU_TP000117,UKENNW_UU_TP000117,UK5,STRETFORD STW,1,,ISCON,UKD34,24488,24488,1,1,0,0,0,0,0,0,0,,P,P,,NR,NR,P,,53.43494772,-2.33172485,POINT (-2.3317248540000004 53.43494775584852),,,,,,,,,,,,,,,,,,,,,,,,,,,,,,,,,P,Secondary,2016
UWWTD_United-Kingdom_UrbanWasteWaterTreatmentPlant.fid-27ca0597_176cdf32d22_-157a,2016_uww_UKENSO_SW_TP000096,UKENSO_SW_TP000096,UK5,HAILSHAM SOUTH STW,1,,ISCON,UKJ22,28533,32563,1,1,0,1,0,0,0,0,0,,P,P,,NR,P,P,,50.85253373,0.26797136,POINT (0.26797136 50.85253376843362),,,,,,,,,,,THE HORSE EYE SEWER,,,,,,,,,,,,,,,,,,,,,,P,More Stringent,2016
UWWTD_United-Kingdom_UrbanWasteWaterTreatmentPlant.fid-27ca0597_176cdf32d22_-1579,2016_uww_UKENSO_SW_TP000117,UKENSO_SW_TP000117,UK5,STEYNING STW,1,,ISCON,UKJ28,9223,10183,1,1,0,1,0,0,0,1,0,,P,P,,NR,P,P,,50.895866,-0.31459364,POINT (-0.314593643 50.89586603839706),,,,,,,,,,,,,,,,,,,,,,,,,,,,,,,,,P,More Stringent,2016
UWWTD_United-Kingdom_UrbanWasteWaterTreatmentPlant.fid-27ca0597_176cdf32d22_-1578,2016_uww_UKENSO_SW_TP000130,UKENSO_SW_TP000130,UK5,BILLINGSHURST STW,1,,ISCON,UKJ28,7434,7631,1,1,0,0,0,0,0,0,0,,P,P,,NR,NR,P,,51.01184142,-0.46469558,POINT (-0.4646955769999999 51.011841458298),,,,,,,,,,,,,,,,,,,,,,,,,,,,,,,,,P,Secondary,2016
UWWTD_United-Kingdom_UrbanWasteWaterTreatmentPlant.fid-27ca0597_176cdf32d22_-1577,2016_uww_UKENSO_SW_TP000131,UKENSO_SW_TP000131,UK5,OVERTON STW,1,,ISCON,UKJ37,4482,4482,1,1,0,0,0,0,0,0,0,,P,P,,NR,NR,P,,51.24447651,-1.27999552,POINT (-1.2799955179999996 51.24447654809405),,,,,,,,,,,,,,,,,,,,,,,,,,,,,,,,,P,Secondary,2016
UWWTD_United-Kingdom_UrbanWasteWaterTreatmentPlant.fid-27ca0597_176cdf32d22_-1576,2016_uww_UKENSO_SW_TP000132,UKENSO_SW_TP000132,UK5,BISHOPS WALTHAM NEW STW,1,,ISCON,UKJ36,13359,15917,1,1,1,1,0,0,0,1,0,,P,P,,P,P,P,,50.94236381,-1.22918807,POINT (-1.2291880710000003 50.94236384835757),,,,,,,,,,,,,,,,,,,,,,,,,,,,,,,,,P,More Stringent,2016
UWWTD_United-Kingdom_UrbanWasteWaterTreatmentPlant.fid-27ca0597_176cdf32d22_-1575,2016_uww_UKENSO_SW_TP000133,UKENSO_SW_TP000133,UK5,GRIMSTEAD STW,1,,ISCON,UKK15,2968,2968,1,1,0,0,0,0,0,0,0,,P,P,,NR,NR,P,,51.04679815,-1.67286114,POINT (-1.672861135 51.0467981882678),,,,,,,,,,,,,,,,,,,,,,,,,,,,,,,,,P,Secondary,2016
UWWTD_United-Kingdom_UrbanWasteWaterTreatmentPlant.fid-27ca0597_176cdf32d22_-1574,2016_uww_UKENMI_ST_TP000236,UKENMI_ST_TP000236,UK5,WIRKSWORTH STW,1,,ISCON,UKF13,6170,7000,1,1,0,0,0,0,0,0,0,,P,P,,NR,NR,P,,53.06665741,-1.57689504,POINT (-1.576895043 53.06665744626524),,,,,,,,,,,,,,,,,,,,,,,,,,,,,,,,,P,Secondary,2016
UWWTD_United-Kingdom_UrbanWasteWaterTreatmentPlant.fid-27ca0597_176cdf32d22_-1573,2016_uww_UKENMI_ST_TP000237,UKENMI_ST_TP000237,UK5,WOLSTON STW,1,,ISCON,UKG13,5732,6500,1,1,0,0,0,0,0,0,0,,P,P,,NR,NR,P,,52.36973019,-1.41737611,POINT (-1.41737611 52.36973022701171),,,,,,,,,,,,,,,,,,,,,,,,,,,,,,,,,P,Secondary,2016
UWWTD_United-Kingdom_UrbanWasteWaterTreatmentPlant.fid-27ca0597_176cdf32d22_-1572,2016_uww_UKENMI_ST_TP000239,UKENMI_ST_TP000239,UK5,WOOD EATON STW,1,,ISCON,UKG24,4510,5500,1,1,0,0,0,0,0,1,0,,P,P,,NR,NR,P,,52.76728941,-2.23651234,POINT (-2.2365123440000003 52.76728944659276),,,,,,,,,,,,,,,,,,,,,,,,,,,,,,,,,P,More Stringent,2016
UWWTD_United-Kingdom_UrbanWasteWaterTreatmentPlant.fid-27ca0597_176cdf32d22_-1571,2016_uww_UKENMI_ST_TP000240,UKENMI_ST_TP000240,UK5,WOOTTON WAWEN STW,1,,ISCON,UKG13,4451,4750,1,1,0,0,0,0,0,0,0,,P,P,,NR,NR,P,,52.25912704,-1.78269643,POINT (-1.7826964320000003 52.259127077124965),,,,,,,,,,,,,,,,,,,,,,,,,,,,,,,,,P,Secondary,2016
UWWTD_United-Kingdom_UrbanWasteWaterTreatmentPlant.fid-27ca0597_176cdf32d22_-1570,2016_uww_UKENMI_ST_TP000241,UKENMI_ST_TP000241,UK5,WORCESTER STW,1,,ISCON,UKG12,122193,130000,1,1,0,0,0,0,0,0,0,,P,P,,NR,NR,P,,52.17873488,-2.22635403,POINT (-2.2263540299999995 52.17873491720634),,,,,,,,,,,,,,,,,,,,,,,,,,,,,,,,,P,Secondary,2016
UWWTD_United-Kingdom_UrbanWasteWaterTreatmentPlant.fid-27ca0597_176cdf32d22_-156f,2016_uww_UKENMI_ST_TP000242,UKENMI_ST_TP000242,UK5,WORKSOP STW,1,,ISCON,UKF15,59483,100000,1,1,0,1,0,0,0,1,0,,P,P,,NR,P,P,,53.30319188,-1.08581636,POINT (-1.08581636 53.303191915999314),,,,,,,,,,,,,,,,,,,,,,,,,,,,,,,,,P,More Stringent,2016
UWWTD_United-Kingdom_UrbanWasteWaterTreatmentPlant.fid-27ca0597_176cdf32d22_-156e,2016_uww_UKENMI_ST_TP000250,UKENMI_ST_TP000250,UK5,CROWLE   STW,1,,ISCON,UKE13,4775,4775,1,1,0,0,0,0,0,0,0,,P,P,,NR,NR,P,,53.60429632,-0.84432232,POINT (-0.84432232 53.604296355651904),,,,,,,,,,,,,,,,,,,,,,,,,,,,,,,,,P,Secondary,2016
UWWTD_United-Kingdom_UrbanWasteWaterTreatmentPlant.fid-27ca0597_176cdf32d22_-156d,2016_uww_UKNI_TP00063,UKNI_TP00063,UK5,Newry,1,,ISCON,UKN08,59655,115000,1,1,0,0,0,0,0,0,0,,P,P,NR,NR,NR,NR,,54.16,-6.332,POINT (-6.332 54.16000003498541),,,,,,,,,,,,,,,,,,,,,,,,,,,,,,,,,NR,Secondary,2016
UWWTD_United-Kingdom_UrbanWasteWaterTreatmentPlant.fid-27ca0597_176cdf32d22_-156c,2016_uww_UKENMI_ST_TP000251,UKENMI_ST_TP000251,UK5,EDGMOND STW,1,,ISCON,UKG21,2634,2750,1,1,0,0,0,0,0,0,0,Reed beds,P,P,,NR,NR,P,,52.77390232,-2.43947699,POINT (-2.439476986 52.773902356585644),,,,,,,,,,,,,,,,,,,,,,,,,,,,,,,,,P,Secondary,2016
UWWTD_United-Kingdom_UrbanWasteWaterTreatmentPlant.fid-27ca0597_176cdf32d22_-156b,2016_uww_UKENMI_ST_TP000252,UKENMI_ST_TP000252,UK5,FORD STW,1,,ISCON,UKG22,2370,2600,1,1,0,0,0,0,0,0,0,Reedbed,P,P,,NR,NR,P,,52.72453242,-2.86674242,POINT (-2.866742419 52.72453245663869),,,,,,,,,,,,,,,,,,,,,,,,,,,,,,,,,P,Secondary,2016
UWWTD_United-Kingdom_UrbanWasteWaterTreatmentPlant.fid-27ca0597_176cdf32d22_-156a,2016_uww_UKENMI_ST_TP000253,UKENMI_ST_TP000253,UK5,FROGHALL STW,1,,ISCON,UKG24,3218,3500,1,1,0,0,0,0,0,0,1,0,P,P,,NR,NR,P,,53.01985044,-1.96285457,POINT (-1.9628545690000003 53.019850476317124),,,,,,,,,,,,,,,,,,,,,,,,,,,,,,,,,P,More Stringent,2016
UWWTD_United-Kingdom_UrbanWasteWaterTreatmentPlant.fid-27ca0597_176cdf32d22_-1569,2016_uww_UKENMI_ST_TP000255,UKENMI_ST_TP000255,UK5,HAXEY STW,1,,ISCON,UKE13,5737,5737,1,1,0,0,0,0,0,0,0,,P,P,,NR,NR,P,,53.47846036,-0.8451823,POINT (-0.845182302 53.4784603957983),,,,,,,,,,,,,,,,,,,,,,,,,,,,,,,,,P,Secondary,2016
UWWTD_United-Kingdom_UrbanWasteWaterTreatmentPlant.fid-27ca0597_176cdf32d22_-1568,2016_uww_UKNI_TP00064,UKNI_TP00064,UK5,Whitehouse (Newtownabbey),1,,ISCON,UKN13,88079,100000,1,1,1,0,0,0,0,0,0,,P,P,NR,P,NR,NR,,54.651,-5.915,POINT (-5.915000000000001 54.65100003437031),,,,,,,,,,,,,,,,,,,,,,,,,,,,,,,,,NR,More Stringent,2016
UWWTD_United-Kingdom_UrbanWasteWaterTreatmentPlant.fid-27ca0597_176cdf32d22_-1567,2016_uww_UKNI_TP00065,UKNI_TP00065,UK5,Ballyrickard,1,,ISCON,UKN09,41768,49908,1,1,1,0,1,0,0,0,0,,P,P,NR,P,NR,NR,,54.56,-5.699,POINT (-5.699000000000002 54.56000003448611),,,,,,,,,,,,,,,,,,,,,,,Flow and load survey after an increase in the housing stock.,,,,,,,,,,NR,More Stringent,2016
UWWTD_United-Kingdom_UrbanWasteWaterTreatmentPlant.fid-27ca0597_176cdf32d22_-1566,2016_uww_UKENMI_ST_TP000256,UKENMI_ST_TP000256,UK5,CHELTENHAM STW,1,,ISCON,UKK13,138058,138058,1,1,0,1,0,0,0,1,0,,P,P,,NR,P,P,,51.92217731,-2.14784728,POINT (-2.1478472760000002 51.922177347460874),,,,,,,,,,,,,,,,,,,,,,,,,,,,,,,,,P,More Stringent,2016
UWWTD_United-Kingdom_UrbanWasteWaterTreatmentPlant.fid-27ca0597_176cdf32d22_-1565,2016_uww_UKNI_TP00066,UKNI_TP00066,UK5,Newtownbreda,1,,ISCON,UKN06,40019,44375,1,1,1,1,0,0,0,0,1,,P,P,NR,P,P,NR,,54.562,-5.927,POINT (-5.927 54.56200003448355),,,,,,,,,,,,,,,,,,,,,,,,,,,,,,,,,NR,More Stringent,2016
UWWTD_United-Kingdom_UrbanWasteWaterTreatmentPlant.fid-27ca0597_176cdf32d22_-1564,2016_uww_UKENMI_ST_TP000257,UKENMI_ST_TP000257,UK5,KEYWORTH STW,1,,ISCON,UKF16,7125,12000,1,1,0,0,0,0,0,0,0,Addition of Chemical Dosing using Iron,P,P,,NR,NR,P,,52.86661712,-1.10259347,POINT (-1.102593472 52.86661715648524),,,,,,,,,,,,,,,,,,,,,,,,,,,,,,,,,P,Secondary,2016
UWWTD_United-Kingdom_UrbanWasteWaterTreatmentPlant.fid-27ca0597_176cdf32d22_-1563,2016_uww_UKNI_TP00067,UKNI_TP00067,UK5,Newtownstewart,1,,ISCON,UKN10,2169,4320,1,1,0,0,0,0,0,0,0,Reed bed,P,P,NR,NR,NR,NR,,54.7205,-7.3805,POINT (-7.3805000000000005 54.72050003428132),,,,,,,,,,,,,,,,,,,,,,,,,,,,,,,,,NR,More Stringent,2016
UWWTD_United-Kingdom_UrbanWasteWaterTreatmentPlant.fid-27ca0597_176cdf32d22_-1562,2016_uww_UKNI_TP00068,UKNI_TP00068,UK5,Omagh,1,,ISCON,UKN16,36173,47000,1,1,0,1,0,0,0,0,0,,P,P,NR,NR,P,NR,,54.638,-6.175,POINT (-6.174999999999999 54.638000034386906),,,,,,,,,,,,,,,,,,,,,,,,,,,,,,,,,NR,More Stringent,2016
UWWTD_United-Kingdom_UrbanWasteWaterTreatmentPlant.fid-27ca0597_176cdf32d22_-1561,2016_uww_UKENMI_ST_TP000258,UKENMI_ST_TP000258,UK5,KINOULTON STW,1,,ISCON,UKF16,2163,2236,1,1,0,0,0,0,0,0,0,,P,P,,NR,NR,P,,52.87036758,-0.97712731,POINT (-0.9771273139999999 52.87036761648115),,,,,,,,,,,,,,,,,,,,,,,,,,,,,,,,,P,Secondary,2016
UWWTD_United-Kingdom_UrbanWasteWaterTreatmentPlant.fid-27ca0597_176cdf32d22_-1560,2016_uww_UKENMI_ST_TP000259,UKENMI_ST_TP000259,UK5,LOGGERHEADS VILLAGE STW,1,,ISCON,UKG24,2818,3000,1,1,0,0,0,0,0,0,0,Reedbeds,P,P,,NR,NR,P,,52.92193132,-2.39620567,POINT (-2.3962056649999997 52.92193135642485),,,,,,,,,,,,,,,,,,,,,,,,,,,,,,,,,P,Secondary,2016
UWWTD_United-Kingdom_UrbanWasteWaterTreatmentPlant.fid-27ca0597_176cdf32d22_-155f,2016_uww_UKENMI_ST_TP000260,UKENMI_ST_TP000260,UK5,LONGHOPE STW,1,,ISCON,UKK13,3660,4000,1,1,0,0,0,0,0,0,0,,P,P,,NR,NR,P,,51.85864993,-2.45068049,POINT (-2.4506804909999995 51.85864996752265),,,,,,,,,,,,,,,,,,,,,,,,,,,,,,,,,P,Secondary,2016
UWWTD_United-Kingdom_UrbanWasteWaterTreatmentPlant.fid-27ca0597_176cdf32d22_-155e,2016_uww_UKENMI_ST_TP000261,UKENMI_ST_TP000261,UK5,MINSTERLEY STW,1,,ISCON,UKG22,2524,8000,1,1,0,0,0,0,0,0,0,,P,P,,NR,NR,P,,52.64727452,-2.93054417,POINT (-2.9305441669999994 52.64727455672117),,,,,,,,,,,,,,,,,,,,,,,,,,,,,,,,,P,Secondary,2016
UWWTD_United-Kingdom_UrbanWasteWaterTreatmentPlant.fid-27ca0597_176cdf32d22_-155d,2016_uww_UKENMI_ST_TP000262,UKENMI_ST_TP000262,UK5,NEWBOLD VERDON STW,1,,ISCON,UKF22,3478,4000,1,1,0,0,0,0,0,1,0,,P,P,,NR,NR,P,,52.62344352,-1.35087745,POINT (-1.350877451 52.6234435567465),,,,,,,,,,,,,,,,,,,,,,,,,,,,,,,,,P,More Stringent,2016
UWWTD_United-Kingdom_UrbanWasteWaterTreatmentPlant.fid-27ca0597_176cdf32d22_-155c,2016_uww_UKENMI_ST_TP000263,UKENMI_ST_TP000263,UK5,NEWPORT STW,1,,ISCON,UKG21,13064,14162,1,1,0,1,0,0,0,0,0,,P,P,,NR,P,P,,52.77010993,-2.39304628,POINT (-2.3930462750000006 52.770109966589715),,,,,,,,,,,,,,,,,,,,,,,,,,,,,,,,,P,More Stringent,2016
UWWTD_United-Kingdom_UrbanWasteWaterTreatmentPlant.fid-27ca0597_176cdf32d22_-155b,2016_uww_UKENMI_ST_TP000264,UKENMI_ST_TP000264,UK5,OVERSEAL STW,1,,ISCON,UKF13,2417,2600,1,1,0,0,0,0,0,0,0,,P,P,,NR,NR,P,,52.73105816,-1.56978272,POINT (-1.5697827190000002 52.731058196631714),,,,,,,,,,,,,,,,,,,,,,,,,,,,,,,,,P,Secondary,2016
UWWTD_United-Kingdom_UrbanWasteWaterTreatmentPlant.fid-27ca0597_176cdf32d22_-155a,2016_uww_UKENNW_UU_TP000131,UKENNW_UU_TP000131,UK5,WHITEHAVEN STW,1,,ISCON,UKD11,33506,36845,1,1,0,0,0,0,0,0,0,,P,P,,NR,NR,P,,54.57426198,-3.57911134,POINT (-3.5791113390000002 54.57426201446801),,,,,,,,,,,,,,,,,,,,,,,,,,,,,,,,,P,Secondary,2016
UWWTD_United-Kingdom_UrbanWasteWaterTreatmentPlant.fid-27ca0597_176cdf32d22_-1559,2016_uww_UKENNW_UU_TP000132,UKENNW_UU_TP000132,UK5,WIDNES STW,1,,ISCON,UKD71,114908,114908,1,1,0,0,0,0,0,0,0,,P,P,,NR,NR,P,,53.34066915,-2.77480583,POINT (-2.774805831 53.34066918595663),,,,,,,,,,,,,,,,,,,,,,,,,,,,,,,,,P,Secondary,2016
UWWTD_United-Kingdom_UrbanWasteWaterTreatmentPlant.fid-27ca0597_176cdf32d22_-1558,2016_uww_UKENNW_UU_TP000133,UKENNW_UU_TP000133,UK5,WIGAN (HOSCAR) STW,1,,ISCON,UKD47,363450,410498,1,1,0,0,1,0,0,0,0,UV treatment & Ferric dosing,P,P,,NR,NR,P,,53.5985267,-2.78461051,POINT (-2.7846105050000003 53.598526735658666),,,,,,,,,,,,,,,,,,,,,,,,,,,,,,,,,P,More Stringent,2016
UWWTD_United-Kingdom_UrbanWasteWaterTreatmentPlant.fid-27ca0597_176cdf32d22_-1557,2016_uww_UKNI_TP00072,UKNI_TP00072,UK5,Rathfriland,1,,ISCON,UKN07,3977,4000,1,1,0,0,0,0,0,0,0,,P,P,NR,NR,NR,NR,,54.23,-6.174,POINT (-6.174 54.23000003489918),,,,,,,,,,,,,,,,,,,,,,,,,,,,,,,,,NR,Secondary,2016
UWWTD_United-Kingdom_UrbanWasteWaterTreatmentPlant.fid-27ca0597_176cdf32d22_-1556,2016_uww_UKNI_TP00073,UKNI_TP00073,UK5,Richhill,1,,ISCON,UKN07,2691,4914,1,1,0,0,0,0,0,0,0,,P,P,NR,NR,NR,NR,,54.383,-6.541,POINT (-6.541000000000002 54.38300003470901),,,,,,,,,,,,,,,,,,,,,,,,,,,,,,,,,NR,Secondary,2016
UWWTD_United-Kingdom_UrbanWasteWaterTreatmentPlant.fid-27ca0597_176cdf32d22_-1555,2016_uww_UKNI_TP00074,UKNI_TP00074,UK5,Saintfield,1,,ISCON,UKN08,5048,5637,1,1,0,0,0,0,0,0,0,,P,P,NR,NR,NR,NR,,54.4628,-5.824,POINT (-5.824 54.46280003460889),,,,,,,,,,,,,,,,,,,,,,,,,,,,,,,,,NR,Secondary,2016
UWWTD_United-Kingdom_UrbanWasteWaterTreatmentPlant.fid-27ca0597_176cdf32d22_-1554,2016_uww_UKENNW_UU_TP000134,UKENNW_UU_TP000134,UK5,WIGTON STW,1,,ISCON,UKD11,8815,9128,1,1,0,0,0,0,0,0,0,,P,P,,NR,NR,P,,54.83538701,-3.15689574,POINT (-3.156895742 54.83538704413323),,,,,,,,,,,,,,,,,,,,,,,,,,,,,,,,,P,Secondary,2016
UWWTD_United-Kingdom_UrbanWasteWaterTreatmentPlant.fid-27ca0597_176cdf32d22_-1553,2016_uww_UKNI_TP00076,UKNI_TP00076,UK5,Sion Mills,1,,ISCON,UKN10,3544,4950,1,1,0,0,0,0,0,0,0,,P,P,NR,NR,NR,NR,,54.79,-7.469,POINT (-7.469000000000001 54.790000034191884),,,,,,,,,,,,,,,,,,,,,,,,,,,,,,,,,NR,Secondary,2016
UWWTD_United-Kingdom_UrbanWasteWaterTreatmentPlant.fid-27ca0597_176cdf32d22_-1552,2016_uww_UKENAN_AW_TP000210,UKENAN_AW_TP000210,UK5,PETERBOROUGH   STW,1,,ISCON,UKH11,204328,204328,1,1,0,0,0,0,0,0,0,,P,P,,NR,NR,P,,52.56923553,-0.20166583,POINT (-0.20166583 52.56923556680378),,,,,,,,,,,,,,,,,,,,,,,,,,,,,,,,,P,Secondary,2016
UWWTD_United-Kingdom_UrbanWasteWaterTreatmentPlant.fid-27ca0597_176cdf32d22_-1551,2016_uww_UKENMI_ST_TP000222,UKENMI_ST_TP000222,UK5,LEICESTER   STW,1,,ISCON,UKF22,641315,700000,1,1,0,1,0,0,0,0,0,,P,P,,NR,P,P,,52.70103424,-1.11575968,POINT (-1.115759684 52.70103427666389),,,,,,,,,,,,,,,,,,,,,,,,,,,,,,,,,P,More Stringent,2016
UWWTD_United-Kingdom_UrbanWasteWaterTreatmentPlant.fid-27ca0597_176cdf32d22_-1550,2016_uww_UKENMI_YW_TP000167,UKENMI_YW_TP000167,UK5,HMP LINDHOLME & MOORLAND,1,,ISCON,UKE31,2535,2535,1,1,0,0,0,0,0,0,0,,P,P,,NR,NR,P,,53.55555456,-0.98134505,POINT (-0.9813450541704289 53.55555459214972),,,,,,,,,,,,,,,,,,,,,,,,,,,,,,,,,P,Secondary,2016
UWWTD_United-Kingdom_UrbanWasteWaterTreatmentPlant.fid-27ca0597_176cdf32d22_-154f,2016_uww_UKENNW_UU_TP000135,UKENNW_UU_TP000135,UK5,WILMSLOW STW,1,,ISCON,UKD62,23711,23711,1,1,0,0,0,0,0,1,0,,P,P,,NR,NR,P,,53.33755165,-2.23980971,POINT (-2.2398097080000006 53.337551685960186),,,,,,,,,,,,,,,,,,,,,,,,,,,,,,,,,P,More Stringent,2016
UWWTD_United-Kingdom_UrbanWasteWaterTreatmentPlant.fid-27ca0597_176cdf32d22_-154e,2016_uww_UKENNW_UU_TP000098,UKENNW_UU_TP000098,UK5,OLDHAM STW,1,,ISCON,UKD37,161356,161356,1,1,0,0,0,0,0,0,0,,P,P,,NR,NR,P,,53.53641898,-2.16187188,POINT (-2.1618718759999997 53.536419015731084),,,,,,,,,,,,,,,,,,,,,,,,,,,,,,,,,P,Secondary,2016
UWWTD_United-Kingdom_UrbanWasteWaterTreatmentPlant.fid-27ca0597_176cdf32d22_-154d,2016_uww_UKENAN_AW_TP000273,UKENAN_AW_TP000273,UK5,WAINFLEET STW,1,,ISCON,UKF30,2381,3816,1,1,0,0,0,0,0,0,0,,P,P,,NR,NR,P,,53.11246812,0.22626201,POINT (0.226262014 53.11246815621422),,,,,,,,,,,,,,,,,,,,,,,,,,,,,,,,,P,Secondary,2016
UWWTD_United-Kingdom_UrbanWasteWaterTreatmentPlant.fid-27ca0597_176cdf32d22_-154c,2016_uww_UKENAN_AW_TP000274,UKENAN_AW_TP000274,UK5,WALTON ON THE NAZE STW,1,,ISCON,UKH34,22680,26600,1,1,0,0,0,0,0,1,0,,P,P,,NR,NR,P,,51.87335303,1.28530694,POINT (1.285306944 51.87335306750838),,,,,,,,,,,,,,,,,,,,,,,,,,,,,,,,,P,More Stringent,2016
UWWTD_United-Kingdom_UrbanWasteWaterTreatmentPlant.fid-27ca0597_176cdf32d22_-154b,2016_uww_UKENNE_YW_TP000074,UKENNE_YW_TP000074,UK5,DENHOLME   STW,1,,ISCON,UKE41,3087,3096,1,1,0,0,0,0,0,0,0,,P,P,,NR,NR,P,,53.80170645,-1.88610546,POINT (-1.8861054640000001 53.801706485418855),,,,,,,,,,,,,,,,,,,,,,,,,,,,,,,,,P,Secondary,2016
UWWTD_United-Kingdom_UrbanWasteWaterTreatmentPlant.fid-27ca0597_176cdf32d22_-154a,2016_uww_UKENNE_YW_TP000075,UKENNE_YW_TP000075,UK5,BINGLEY   STW,1,,ISCON,UKE41,39007,39007,1,1,0,0,0,0,0,0,0,,P,P,,NR,NR,P,,53.83992192,-1.81913547,POINT (-1.8191354710000003 53.83992195537326),,,,,,,,,,,,,,,,,,,,,,,,,,,,,,,,,P,Secondary,2016
UWWTD_United-Kingdom_UrbanWasteWaterTreatmentPlant.fid-27ca0597_176cdf32d22_-1549,2016_uww_UKENNE_YW_TP000076,UKENNE_YW_TP000076,UK5,DRIFFIELD STW,1,,ISCON,UKE12,14582,14667,1,1,0,0,0,0,0,0,0,,P,P,,NR,P,P,,53.99792291,-0.4353963,POINT (-0.4353962969999999 53.997922945183134),,,,,,,,,,,,,,,,,,,,,,,,,,,,,,,,,P,Secondary,2016
UWWTD_United-Kingdom_UrbanWasteWaterTreatmentPlant.fid-27ca0597_176cdf32d22_-1548,2016_uww_UKENNE_YW_TP000077,UKENNE_YW_TP000077,UK5,DRONFIELD STW,1,,ISCON,UKF12,24277,25716,1,1,0,0,0,0,0,0,0,,P,P,,NR,NR,P,,53.29598823,-1.45010615,POINT (-1.450106145 53.29598826600752),,,,,,,,,,,,,,,,,,,,,,,,,,,,,,,,,P,Secondary,2016
UWWTD_United-Kingdom_UrbanWasteWaterTreatmentPlant.fid-27ca0597_176cdf32d22_-1547,2016_uww_UKENNE_YW_TP000078,UKENNE_YW_TP000078,UK5,EARBY STW,1,,ISCON,UKD46,6555,6607,1,1,0,0,0,0,0,0,0,,P,P,,NR,NR,P,,53.9221266,-2.13823889,POINT (-2.138238886 53.92212663527466),,,,,,,,,,,,,,,,,,,,,,,,,,,,,,,,,P,Secondary,2016
UWWTD_United-Kingdom_UrbanWasteWaterTreatmentPlant.fid-27ca0597_176cdf32d22_-1546,2016_uww_UKENMI_ST_TP000115,UKENMI_ST_TP000115,UK5,IBSTOCK STW,1,,ISCON,UKF22,7703,8500,1,1,0,1,0,0,0,1,0,,P,P,,NR,P,P,,52.67796396,-1.41056431,POINT (-1.4105643080000003 52.67796399668849),,,,,,,,,,,,,,,,,,,,,,,,,,,,,,,,,P,More Stringent,2016
UWWTD_United-Kingdom_UrbanWasteWaterTreatmentPlant.fid-27ca0597_176cdf32d22_-1545,2016_uww_UKENMI_ST_TP000116,UKENMI_ST_TP000116,UK5,ILKESTON STW,1,,ISCON,UKF16,49253,55000,1,1,0,1,0,0,0,1,0,,P,P,,NR,P,P,,52.95090331,-1.28258299,POINT (-1.2825829859999998 52.9509033463931),,,,,,,,,,,,,,,,,,,,,,,,,,,,,,,,,P,More Stringent,2016
UWWTD_United-Kingdom_UrbanWasteWaterTreatmentPlant.fid-27ca0597_176cdf32d22_-1544,2016_uww_UKENNW_UU_TP000136,UKENNW_UU_TP000136,UK5,WILPSHIRE STW,1,,ISCON,UKD45,2982,3184,1,1,0,0,0,0,0,0,0,,P,P,,NR,NR,P,,53.78726842,-2.49402142,POINT (-2.494021416 53.78726845543605),,,,,,,,,,,,,,,,,,,,,,,,,,,,,,,,,P,Secondary,2016
UWWTD_United-Kingdom_UrbanWasteWaterTreatmentPlant.fid-27ca0597_176cdf32d22_-1543,2016_uww_UKENNW_UU_TP000137,UKENNW_UU_TP000137,UK5,WINDERMERE STW,1,,ISCON,UKD12,10260,11286,1,1,0,1,1,0,0,0,0,UV treatment & Ferric dosing,P,P,,NR,P,P,,54.3141085,-2.94793386,POINT (-2.947933854999999 54.314108534794926),,,,,,,,,,,,,,,,,,,,,,,,,,,,,,,,,P,More Stringent,2016
UWWTD_United-Kingdom_UrbanWasteWaterTreatmentPlant.fid-27ca0597_176cdf32d22_-1542,2016_uww_UKENSO_SW_TP000028,UKENSO_SW_TP000028,UK5,DOVER/FOLKSTONE   STW,1,,ISCON,UKJ44,114216,114216,1,1,0,0,0,0,0,0,0,,P,P,,NR,NR,P,,51.11339544,1.2643319,POINT (1.2643319020000001 51.113395478209824),,,,,,,,,,,,,,,,,,,,,,,,,,,,,,,,,P,Secondary,2016
UWWTD_United-Kingdom_UrbanWasteWaterTreatmentPlant.fid-27ca0597_176cdf32d22_-1541,2016_uww_UKENSO_SW_TP000029,UKENSO_SW_TP000029,UK5,REDGATE MILL STW,1,,ISCON,UKJ22,20574,21344,1,1,0,1,0,0,0,0,0,,P,P,,NR,P,P,,51.06718425,0.2151594,POINT (0.2151593990000001 51.06718428825011),,,,,,,,,,,,,,,,,,,,,,,,,,,,,,,,,P,More Stringent,2016
UWWTD_United-Kingdom_UrbanWasteWaterTreatmentPlant.fid-27ca0597_176cdf32d22_-1540,2016_uww_UKENSO_SW_TP000030,UKENSO_SW_TP000030,UK5,MAIDSTONE AND AYLESFORD   STW,1,,ISCON,UKJ46,127018,127018,1,1,0,0,0,0,0,0,0,,P,P,,NR,NR,P,,51.30757354,0.46590553,POINT (0.465905534 51.30757357803755),,,,,,,,,,,,,,,,,,,,,,,,,,,,,,,,,P,Secondary,2016
UWWTD_United-Kingdom_UrbanWasteWaterTreatmentPlant.fid-27ca0597_176cdf32d22_-153f,2016_uww_UKENSO_SW_TP000031,UKENSO_SW_TP000031,UK5,WHITEWALL CREEK STW,1,,ISCON,UKJ41,35150,35150,1,1,0,0,0,0,0,0,0,,P,P,,NR,NR,P,,51.4045082,0.51485901,POINT (0.5148590110000001 51.404508237949734),,,,,,,,,,,,,,,,,,,,,,,,,,,,,,,,,P,Secondary,2016
UWWTD_United-Kingdom_UrbanWasteWaterTreatmentPlant.fid-27ca0597_176cdf32d22_-153e,2016_uww_UKNI_TP00077,UKNI_TP00077,UK5,Strabane,1,,ISCON,UKN10,20129,38000,1,1,0,0,0,0,0,0,0,,P,P,NR,NR,NR,NR,,54.838,-7.467,POINT (-7.467 54.838000034129855),,,,,,,,,,,,,,,,,,,,,,,,,,,,,,,,,NR,Secondary,2016
UWWTD_United-Kingdom_UrbanWasteWaterTreatmentPlant.fid-27ca0597_176cdf32d22_-153d,2016_uww_UKENAN_AW_TP000211,UKENAN_AW_TP000211,UK5,POPPY HILL STW,1,,ISCON,UKH25,18826,19203,1,1,0,1,0,0,0,0,0,,P,P,,NR,P,P,,52.0344376,-0.26510402,POINT (-0.265104023 52.03443763735047),,,,,,,,,,,,,,,,,,,,,,,,,,,,,,,,,P,More Stringent,2016
UWWTD_United-Kingdom_UrbanWasteWaterTreatmentPlant.fid-27ca0597_176cdf32d22_-153c,2016_uww_UKENSO_SW_TP000032,UKENSO_SW_TP000032,UK5,SITTINGBOURNE STW,1,,ISCON,UKJ43,73482,73482,1,1,0,0,0,0,0,0,0,,P,P,,NR,NR,P,,51.35066004,0.74257172,POINT (0.742571719 51.35066007799869),,,,,,,,,,,,,,,,,,,,,,,,,,,,,,,,,P,Secondary,2016
UWWTD_United-Kingdom_UrbanWasteWaterTreatmentPlant.fid-27ca0597_176cdf32d22_-153b,2016_uww_UKENMI_ST_TP000008,UKENMI_ST_TP000008,UK5,ASFORDBY STW,0,,ISCON,UKF22,5944,6500,1,1,0,0,0,0,0,0,0,,P,P,,NR,NR,P,,52.75997092,-0.95630106,POINT (-0.9563010639999999 52.75997095660065),,,,,,,,,,,,2016-03-30,,,,,,,,,,,Pumped forward to Melton Mowbray STW,,,,,,,,,,P,Secondary,2016
UWWTD_United-Kingdom_UrbanWasteWaterTreatmentPlant.fid-27ca0597_176cdf32d22_-153a,2016_uww_UKENMI_ST_TP000009,UKENMI_ST_TP000009,UK5,ASHBOURNE STW,1,,ISCON,UKF13,22109,20000,1,1,0,0,0,0,0,0,0,,P,P,,NR,NR,P,,53.01250991,-1.75836824,POINT (-1.7583682420000002 53.01250994632525),,,,,,,,,,,,,,,,,,,,,,,,,,,,,,,,,P,Secondary,2016
UWWTD_United-Kingdom_UrbanWasteWaterTreatmentPlant.fid-27ca0597_176cdf32d22_-1539,2016_uww_UKENMI_ST_TP000010,UKENMI_ST_TP000010,UK5,ASLOCKTON STW,1,,ISCON,UKF16,13652,16000,1,1,0,0,0,0,0,1,0,,P,P,,NR,NR,P,,52.95768604,-0.9193929,POINT (-0.919392904 52.957686076385656),,,,,,,,,,,,,,,,,,,,,,,,,,,,,,,,,P,More Stringent,2016
UWWTD_United-Kingdom_UrbanWasteWaterTreatmentPlant.fid-27ca0597_176cdf32d22_-1538,2016_uww_UKENSW_WXW_TP000124,UKENSW_WXW_TP000124,UK5,CHIDEOCK STW,1,,ISCON,UKK22,2196,2439,1,1,0,0,1,0,0,0,0,,P,P,,NR,NR,P,,50.72630681,-2.81502514,POINT (-2.815025137 50.72630684853872),,,,,,,,,,,,,,,,,,,,,,,,,,,,,,,,,P,More Stringent,2016
UWWTD_United-Kingdom_UrbanWasteWaterTreatmentPlant.fid-27ca0597_176cdf32d22_-1537,2016_uww_UKENSW_SWS_TP000085,UKENSW_SWS_TP000085,UK5,BRADNINCH STW,1,,ISCON,UKK43,2101,2336,1,1,0,0,0,0,0,0,0,,P,P,,NR,NR,P,,50.82173159,-3.41426891,POINT (-3.4142689110226296 50.82173162520346),,,,,,,,,,,,,,,,,,,,,,,,,,,,,,,,,P,Secondary,2016
UWWTD_United-Kingdom_UrbanWasteWaterTreatmentPlant.fid-27ca0597_176cdf32d22_-1536,2016_uww_UKENNE_YW_TP000024,UKENNE_YW_TP000024,UK5,LEEMING BAR STW,1,,ISCON,UKE22,4131,9352,1,1,0,0,0,0,0,0,0,,P,P,,NR,NR,P,,54.30609514,-1.54277855,POINT (-1.5427785470000004 54.30609517480488),,,,,,,,,,,,,,,,,,,,,,,,,,,,,,,,,P,Secondary,2016
UWWTD_United-Kingdom_UrbanWasteWaterTreatmentPlant.fid-27ca0597_176cdf32d22_-1535,2016_uww_UKENNE_YW_TP000025,UKENNE_YW_TP000025,UK5,LEYBURN STW,1,,ISCON,UKE22,3720,4151,1,1,0,0,0,0,0,0,0,,P,P,,NR,NR,P,,54.29841766,-1.81609049,POINT (-1.8160904939999998 54.29841769481442),,,,,,,,,,,,,,,,,,,,,,,,,,,,,,,,,P,Secondary,2016
UWWTD_United-Kingdom_UrbanWasteWaterTreatmentPlant.fid-27ca0597_176cdf32d22_-1534,2016_uww_UKENSW_SWS_TP000086,UKENSW_SWS_TP000086,UK5,FENITON STW,1,,ISCON,UKK43,1999,2103,1,1,0,0,0,0,0,0,0,,P,P,,NR,NR,P,,50.78435516,-3.25902515,POINT (-3.2590251523617604 50.78435519937475),,,,,,,,,,,,,,,,,,,,,,,,,,,,,,,,,P,Secondary,2016
UWWTD_United-Kingdom_UrbanWasteWaterTreatmentPlant.fid-27ca0597_176cdf32d22_-1533,2016_uww_UKENSW_SWS_TP000087,UKENSW_SWS_TP000087,UK5,NEWTON FERRERS STW,1,,ISCON,UKK43,2231,2231,1,1,0,0,0,0,0,0,0,,P,P,,NR,NR,P,,50.31894581,-4.01578483,POINT (-4.01578483419599 50.31894584701586),,,,,,,,,,,,,,,,,,,,,,,,,,,,,,,,,P,Secondary,2016
UWWTD_United-Kingdom_UrbanWasteWaterTreatmentPlant.fid-27ca0597_176cdf32d22_-1532,2016_uww_UKENSW_SWS_TP000088,UKENSW_SWS_TP000088,UK5,NORTH TAWTON STW,1,,ISCON,UKK43,2053,2111,1,1,0,0,0,0,0,0,0,,P,P,,NR,NR,P,,50.80089526,-3.90575222,POINT (-3.905752224735217 50.80089529980138),,,,,,,,,,,,,,,,,,,,,,,,,,,,,,,,,P,Secondary,2016
UWWTD_United-Kingdom_UrbanWasteWaterTreatmentPlant.fid-27ca0597_176cdf32d22_-1531,2016_uww_UKSC_TP00090,UKSC_TP00090,UK5,HADDINGTON WWTW,1,,ISCON,UKM73,10400,14000,1,1,0,1,0,0,0,0,0,,P,P,,NR,P,,,55.96044,-2.75174,POINT (-2.7517399999999994 55.96044003261946),,,,,,,,,,,,,,,,,,,,,,,,,,,,,,,,,,More Stringent,2016
UWWTD_United-Kingdom_UrbanWasteWaterTreatmentPlant.fid-27ca0597_176cdf32d22_-1530,2016_uww_UKENSW_SWS_TP000089,UKENSW_SWS_TP000089,UK5,SOUTH MILTON STW,0,,ISCON,UKK43,99,1866,1,1,0,0,0,0,0,0,0,,P,P,,NR,NR,P,,50.2684084,-3.84573396,POINT (-3.8457339598293 50.26840844362851),,,,,,,,,,,"Below 2000 PE threshold, so no longer a qualifying discharge under UWWTD",,,,,,,,,,,,,,,,,,,,,,P,Secondary,2016
UWWTD_United-Kingdom_UrbanWasteWaterTreatmentPlant.fid-27ca0597_176cdf32d22_-152f,2016_uww_UKSC_TP00091,UKSC_TP00091,UK5,HAMILTON S.T.W.,1,,ISCON,UKM95,63352,63106,1,1,0,1,0,0,0,0,0,,P,P,,NR,P,,,55.79439,-4.05468,POINT (-4.05468 55.794390032849826),,,,,,,,,,,,,,,,,,,,,,,,,,,,,,,,,,More Stringent,2016
UWWTD_United-Kingdom_UrbanWasteWaterTreatmentPlant.fid-27ca0597_176cdf32d22_-152e,2016_uww_UKENSW_SWS_TP000090,UKENSW_SWS_TP000090,UK5,YEOFORD STW,1,,ISCON,UKK43,2148,2071,1,1,0,0,0,0,0,0,0,,P,P,,NR,NR,P,,50.77841732,-3.72029462,POINT (-3.7202946242053403 50.7784173537559),,,,,,,,,,,,,,,,,,,,,,,,,,,,,,,,,P,Secondary,2016
UWWTD_United-Kingdom_UrbanWasteWaterTreatmentPlant.fid-27ca0597_176cdf32d22_-152d,2016_uww_UKENSW_SWS_TP000091,UKENSW_SWS_TP000091,UK5,PELYNT STW,1,,ISCON,UKK30,2336,2336,1,1,0,0,0,0,0,0,0,,P,P,,NR,NR,P,,50.367263,-4.530901,POINT (-4.530901000000001 50.367263038826195),,,,,,,,,,,New - crossed 2k threshold in 2015,,,,,,,,,,,,,,,,,,,,,,P,Secondary,2016
UWWTD_United-Kingdom_UrbanWasteWaterTreatmentPlant.fid-27ca0597_176cdf32d22_-152c,2016_uww_UKSC_TP00092,UKSC_TP00092,UK5,HAWICK WWTW,1,,ISCON,UKM91,18849,28000,1,1,0,1,0,0,0,0,0,,P,P,,NR,P,,,55.43156,-2.77133,POINT (-2.77133 55.43156003334502),,,,,,,,,,,,,,,,,,,,,,,,,,,,,,,,,,More Stringent,2016
UWWTD_United-Kingdom_UrbanWasteWaterTreatmentPlant.fid-27ca0597_176cdf32d22_-152b,2016_uww_UKSC_TP00093,UKSC_TP00093,UK5,HELENSBURGH   S.T.W.,1,,ISCON,UKM81,12630,19500,1,1,0,0,0,0,0,0,0,,P,P,,NR,NR,,,55.98347,-4.69298,POINT (-4.69298 55.983470032587334),,,,,,,,,,,,,,,,,,,,,,,,,,,,,,,,,,Secondary,2016
UWWTD_United-Kingdom_UrbanWasteWaterTreatmentPlant.fid-27ca0597_176cdf32d22_-152a,2016_uww_UKSC_TP00094,UKSC_TP00094,UK5,HUNTLY WWTW,1,,ISCON,UKM50,6538,5500,1,1,0,0,0,0,0,0,0,,P,P,,NR,NR,,,57.45101,-2.77704,POINT (-2.7770399999999995 57.45101003045652),,,,,,,,,,,,,,,,,,,,,,,,,,,,,,,,,,Secondary,2016
UWWTD_United-Kingdom_UrbanWasteWaterTreatmentPlant.fid-27ca0597_176cdf32d22_-1529,2016_uww_UKSC_TP00095,UKSC_TP00095,UK5,INSCH   WWTP,1,,ISCON,UKM50,2824,3500,1,1,0,0,0,0,0,0,0,,P,P,,NR,NR,,,57.34031,-2.59761,POINT (-2.59761 57.340310030622575),,,,,,,,,,,,,,,,,,,,,,,,,,,,,,,,,,Secondary,2016
UWWTD_United-Kingdom_UrbanWasteWaterTreatmentPlant.fid-27ca0597_176cdf32d22_-1528,2016_uww_UKNI_TP00017,UKNI_TP00017,UK5,Ballygowan,1,,ISCON,UKN09,3372,3000,1,1,0,0,0,0,0,0,0,,P,P,NR,NR,NR,NR,,54.502,-5.786,POINT (-5.786 54.50200003455949),,,,,,,,,,,,,,,,,,,,,,,,,,,,,,,,,NR,Secondary,2016
UWWTD_United-Kingdom_UrbanWasteWaterTreatmentPlant.fid-27ca0597_176cdf32d22_-1527,2016_uww_UKNI_TP00018,UKNI_TP00018,UK5,Ballykelly,1,,ISCON,UKN12,3662,7840,1,1,0,0,0,0,0,0,0,,P,P,NR,NR,NR,NR,,55.049,-7.021,POINT (-7.021000000000002 55.049000033854554),,,,,,,,,,,,,,,,,,,,,,,Army base in catchment closed.,,,,,,,,,,NR,Secondary,2016
UWWTD_United-Kingdom_UrbanWasteWaterTreatmentPlant.fid-27ca0597_176cdf32d22_-1526,2016_uww_UKSC_TP00096,UKSC_TP00096,UK5,INVERCLYDE W.W.T. SERVICE,1,,ISCON,UKM83,87756,121700,1,1,0,0,0,0,0,0,0,,P,P,,NR,NR,,,55.93605,-4.87868,POINT (-4.878679999999999 55.93605003265345),,,,,,,,,,,,,,,,,,,,,,,,,,,,,,,,,,Secondary,2016
UWWTD_United-Kingdom_UrbanWasteWaterTreatmentPlant.fid-27ca0597_176cdf32d22_-1525,2016_uww_UKSC_TP00217,UKSC_TP00217,UK5,ALNESS & INVERGORDON WWTW,1,,ISCON,UKM61,12726,22000,1,1,0,0,0,0,0,0,0,,P,P,,NR,NR,,,57.69106,-4.22457,POINT (-4.22457 57.69106003009372),,,,,,,,,,,,,,,,,,,,,,,,,,,,,,,,,,Secondary,2016
UWWTD_United-Kingdom_UrbanWasteWaterTreatmentPlant.fid-27ca0597_176cdf32d22_-1524,2016_uww_UKENAN_AW_TP000025,UKENAN_AW_TP000025,UK5,BOURN STW,1,,ISCON,UKH12,3171,3800,1,1,0,0,0,0,0,1,0,,P,P,,NR,NR,P,,52.20252084,-0.04569775,POINT (-0.045697747 52.20252087718234),,,,,,,,,,,,,,,,,,,,,,,,,,,,,,,,,P,More Stringent,2016
UWWTD_United-Kingdom_UrbanWasteWaterTreatmentPlant.fid-27ca0597_176cdf32d22_-1523,2016_uww_UKENTH_TWU_TP000001,UKENTH_TWU_TP000001,UK5,ABINGDON (OXON STW),1,,ISCON,UKJ14,14962,41683,1,1,0,1,0,0,0,0,0,New outfall,P,P,,NR,P,P,,51.65255524,-1.29024637,POINT (-1.2902463740000003 51.65255527771966),,,,,,,,,,,,,,,,,,,,,,,,,,,,,,,,,P,More Stringent,2016
UWWTD_United-Kingdom_UrbanWasteWaterTreatmentPlant.fid-27ca0597_176cdf32d22_-1522,2016_uww_UKENAN_AW_TP000026,UKENAN_AW_TP000026,UK5,BOURNE STW,1,,ISCON,UKF30,25685,25685,1,1,0,1,0,0,0,0,0,,P,P,,NR,P,P,,52.76608465,-0.35752875,POINT (-0.35752875 52.76608468659406),,,,,,,,,,,,,,,,,,,,,,,,,,,,,,,,,P,More Stringent,2016
UWWTD_United-Kingdom_UrbanWasteWaterTreatmentPlant.fid-27ca0597_176cdf32d22_-1521,2016_uww_UKENAN_AW_TP000027,UKENAN_AW_TP000027,UK5,BOZEAT STW,1,,ISCON,UKF25,2162,2162,1,1,0,0,0,0,0,0,0,Tertiary lagoon,P,P,,NR,NR,P,,52.22449426,-0.68016461,POINT (-0.680164613 52.22449429716011),,,,,,,,,,,,,,,,,,,,,,,,,,,,,,,,,P,Secondary,2016
UWWTD_United-Kingdom_UrbanWasteWaterTreatmentPlant.fid-27ca0597_176cdf32d22_-1520,2016_uww_UKENTH_TWU_TP000003,UKENTH_TWU_TP000003,UK5,"ALDERSHOT, ALDERSHOT, HANTS STW""",1,,ISCON,UKJ25,37891,43250,1,1,0,1,0,0,0,0,0,,P,P,,NR,P,P,,51.24685784,-0.73630526,POINT (-0.7363052550000001 51.24685787809194),,,,,,,,,,,,,,,,,,,,,,,,,,,,,,,,,P,More Stringent,2016
UWWTD_United-Kingdom_UrbanWasteWaterTreatmentPlant.fid-27ca0597_176cdf32d22_-151f,2016_uww_UKENAN_AW_TP000028,UKENAN_AW_TP000028,UK5,BRACKLEY   STW,1,,ISCON,UKJ13,30016,39956,1,1,1,1,0,0,0,0,0,,P,P,,P,P,P,,52.02007194,-1.12638884,POINT (-1.1263888409999998 52.020071977364694),,,,,,,,,,,,,,,,,,,,,,,,,,,,,,,,,P,More Stringent,2016
UWWTD_United-Kingdom_UrbanWasteWaterTreatmentPlant.fid-27ca0597_176cdf32d22_-151e,2016_uww_UKENTH_TWU_TP000004,UKENTH_TWU_TP000004,UK5,"ALTON, ALTON, HAMPSHIRE STW""",1,,ISCON,UKJ36,49355,49355,1,1,0,1,0,0,0,0,0,,P,P,,NR,P,P,,51.15283331,-0.9590702,POINT (-0.9590701950000002 51.152833348175236),,,,,,,,,,,,,,,,,,,,,,,,,,,,,,,,,P,More Stringent,2016
UWWTD_United-Kingdom_UrbanWasteWaterTreatmentPlant.fid-27ca0597_176cdf32d22_-151d,2016_uww_UKENTH_TWU_TP000005,UKENTH_TWU_TP000005,UK5,"AMPNEY ST PETER, AMPNEY ST PETE STW""",1,,ISCON,UKK13,2429,2429,1,1,0,0,0,0,0,0,1,,P,P,,NR,NR,P,,51.70561723,-1.88028673,POINT (-1.8802867250000002 51.705617267669446),,,,,,,,,,,,,,,,,,,,,,,,,,,,,,,,,P,More Stringent,2016
UWWTD_United-Kingdom_UrbanWasteWaterTreatmentPlant.fid-27ca0597_176cdf32d22_-151c,2016_uww_UKENAN_AW_TP000029,UKENAN_AW_TP000029,UK5,BRAINTREE STW,1,,ISCON,UKH34,30191,30191,1,1,1,1,0,0,0,0,0,,P,P,,P,P,P,,51.86909466,0.56336229,POINT (0.563362292 51.86909469751252),,,,,,,,,,,,,,,,,,,,,,,,,,,,,,,,,P,More Stringent,2016
UWWTD_United-Kingdom_UrbanWasteWaterTreatmentPlant.fid-27ca0597_176cdf32d22_-151b,2016_uww_UKENTH_TWU_TP000006,UKENTH_TWU_TP000006,UK5,"APPLETON, ABINGDON, OXON STW""",1,,ISCON,UKJ14,5779,5806,1,1,0,0,0,0,0,0,1,,P,P,,NR,NR,P,,51.69526458,-1.36915439,POINT (-1.3691543860000002 51.695264617679264),,,,,,,,,,,,,,,,,,,,,,,,,,,,,,,,,P,More Stringent,2016
UWWTD_United-Kingdom_UrbanWasteWaterTreatmentPlant.fid-27ca0597_176cdf32d22_-151a,2016_uww_UKENTH_TWU_TP000007,UKENTH_TWU_TP000007,UK5,"ARBORFIELD, ARBORFIELD, BERKS STW""",1,,ISCON,UKJ11,19663,19663,1,1,0,1,0,0,0,0,0,,P,P,,NR,P,P,,51.40045217,-0.89739639,POINT (-0.8973963940000002 51.40045220795344),,,,,,,,,,,,,,,,,,,,,,,,,,,,,,,,,P,More Stringent,2016
UWWTD_United-Kingdom_UrbanWasteWaterTreatmentPlant.fid-27ca0597_176cdf32d22_-1519,2016_uww_UKSC_TP00098,UKSC_TP00098,UK5,INVERURIE NEW WWTP,1,,ISCON,UKM50,24884,33500,1,1,0,1,0,0,0,0,0,,P,P,,NR,P,,,57.27328,-2.3675,POINT (-2.3675000000000006 57.273280030722745),,,,,,,,,,,,,,,,,,,,,,,,,,,,,,,,,,More Stringent,2016
UWWTD_United-Kingdom_UrbanWasteWaterTreatmentPlant.fid-27ca0597_176cdf32d22_-1518,2016_uww_UKENTH_TWU_TP000008,UKENTH_TWU_TP000008,UK5,ASCOT STW,1,,ISCON,UKJ11,20079,31053,1,1,0,1,0,0,0,0,0,,P,P,,NR,P,P,,51.40612204,-0.72085034,POINT (-0.720850336 51.40612207794826),,,,,,,,,,,,,,,,,,,,,,,,,,,,,,,,,P,More Stringent,2016
UWWTD_United-Kingdom_UrbanWasteWaterTreatmentPlant.fid-27ca0597_176cdf32d22_-1517,2016_uww_UKENAN_AW_TP000126,UKENAN_AW_TP000126,UK5,HAUGHLEY STW,1,,ISCON,UKH14,2898,3188,1,1,0,0,0,0,0,0,0,Lagoons,P,P,,NR,NR,P,,52.21797807,0.96734137,POINT (0.9673413709999998 52.2179781071667),,,,,,,,,,,,,,,,,,,,,,,,,,,,,,,,,P,Secondary,2016
UWWTD_United-Kingdom_UrbanWasteWaterTreatmentPlant.fid-27ca0597_176cdf32d22_-1516,2016_uww_UKENTH_TWU_TP000009,UKENTH_TWU_TP000009,UK5,"ASH VALE, STRATFORD ROAD, NORTH STW""",1,,ISCON,UKJ25,17631,22600,1,1,0,1,0,0,0,0,0,,P,P,,NR,P,P,,51.2773761,-0.7311671,POINT (-0.731167095 51.27737613806466),,,,,,,,,,,,,,,,,,,,,,,,,,,,,,,,,P,More Stringent,2016
UWWTD_United-Kingdom_UrbanWasteWaterTreatmentPlant.fid-27ca0597_176cdf32d22_-1515,2016_uww_UKENTH_TWU_TP000010,UKENTH_TWU_TP000010,UK5,"AYLESBURY, RABANS LANE, AYLESBU STW""",1,,ISCON,UKJ13,102840,105267,1,1,0,1,0,0,0,0,1,,P,P,,NR,P,P,,51.82670409,-0.85524338,POINT (-0.855243378 51.826704127553526),,,,,,,,,,,,,,,,,,,,,,,,,,,,,,,,,P,More Stringent,2016
UWWTD_United-Kingdom_UrbanWasteWaterTreatmentPlant.fid-27ca0597_176cdf32d22_-1514,2016_uww_UKENMI_ST_TP000011,UKENMI_ST_TP000011,UK5,ASTWOOD BANK STW,1,,ISCON,UKG12,2808,3000,1,1,0,0,0,0,0,0,0,Nitrifying filter,P,P,,NR,NR,P,,52.25670871,-1.94986535,POINT (-1.9498653530000003 52.2567087471274),,,,,,,,,,,,,,,,,,,,,,,,,,,,,,,,,P,Secondary,2016
UWWTD_United-Kingdom_UrbanWasteWaterTreatmentPlant.fid-27ca0597_176cdf32d22_-1513,2016_uww_UKENMI_ST_TP000023,UKENMI_ST_TP000023,UK5,BASLOW STW,1,,ISCON,UKF13,4950,6000,1,1,0,0,0,0,0,0,0,Addition of Chemical Dosing using Aluminium,P,P,,NR,NR,P,,53.24272228,-1.6216143,POINT (-1.6216142949999999 53.24272231606791),,,,,,,,,,,,,,,,,,,,,,,,,,,,,,,,,P,Secondary,2016
UWWTD_United-Kingdom_UrbanWasteWaterTreatmentPlant.fid-27ca0597_176cdf32d22_-1512,2016_uww_UKENSO_SW_TP000033,UKENSO_SW_TP000033,UK5,CANTERBURY STW,1,,ISCON,UKJ44,64462,64462,1,1,0,1,0,0,0,0,0,,P,P,,NR,P,P,,51.29526239,1.11028535,POINT (1.110285347 51.29526242804862),,,,,,,,,,,,,,,,,,,,,,,,,,,,,,,,,P,More Stringent,2016
UWWTD_United-Kingdom_UrbanWasteWaterTreatmentPlant.fid-27ca0597_176cdf32d22_-1511,2016_uww_UKENMI_ST_TP000024,UKENMI_ST_TP000024,UK5,BEDWORTH STW,1,,ISCON,UKG13,9793,11000,1,1,0,1,0,0,0,0,0,,P,P,,NR,P,P,,52.48589839,-1.45849048,POINT (-1.4584904830000003 52.48589842689121),,,,,,,,,,,,,,,,,,,,,,,,,,,,,,,,,P,More Stringent,2016
UWWTD_United-Kingdom_UrbanWasteWaterTreatmentPlant.fid-27ca0597_176cdf32d22_-1510,2016_uww_UKENMI_ST_TP000025,UKENMI_ST_TP000025,UK5,BEESTON STW,1,,ISCON,UKF16,22200,24391,1,1,0,0,0,0,0,0,0,,P,P,,NR,NR,P,,52.92310433,-1.19498637,POINT (-1.19498637 52.923104366423566),,,,,,,,,,,,,,,,,,,,,,,,,,,,,,,,,P,Secondary,2016
UWWTD_United-Kingdom_UrbanWasteWaterTreatmentPlant.fid-27ca0597_176cdf32d22_-150f,2016_uww_UKENMI_ST_TP000028,UKENMI_ST_TP000028,UK5,BILSTHORPE STW,1,,ISCON,UKF15,4531,6000,1,1,0,0,0,0,0,1,0,,P,P,,NR,NR,P,,53.14707191,-1.04276871,POINT (-1.042768706 53.14707194617555),,,,,,,,,,,,,,,,,,,,,,,,,,,,,,,,,P,More Stringent,2016
UWWTD_United-Kingdom_UrbanWasteWaterTreatmentPlant.fid-27ca0597_176cdf32d22_-150e,2016_uww_UKENMI_ST_TP000094,UKENMI_ST_TP000094,UK5,FLECKNEY STW,1,,ISCON,UKF22,4901,5500,1,1,0,0,0,0,0,0,0,,P,P,,NR,NR,P,,52.54539277,-1.03218055,POINT (-1.0321805449999997 52.54539280682887),,,,,,,,,,,,,,,,,,,,,,,,,,,,,,,,,P,Secondary,2016
UWWTD_United-Kingdom_UrbanWasteWaterTreatmentPlant.fid-27ca0597_176cdf32d22_-150d,2016_uww_UKENSO_SW_TP000034,UKENSO_SW_TP000034,UK5,OXTED STW,1,,ISCON,UKJ26,14467,14467,1,1,0,1,0,0,0,1,0,,P,P,,NR,P,P,,51.23447661,0.00277854,POINT (0.002778536 51.23447664810297),,,,,,,,,,,,,,,,,,,,,,,,,,,,,,,,,P,More Stringent,2016
UWWTD_United-Kingdom_UrbanWasteWaterTreatmentPlant.fid-27ca0597_176cdf32d22_-150c,2016_uww_UKENMI_ST_TP000095,UKENMI_ST_TP000095,UK5,FRAMPTON STW,1,,ISCON,UKK13,2827,3000,1,1,0,0,0,0,0,0,0,,P,P,,NR,NR,P,,51.77572,-2.38390622,POINT (-2.3839062200000005 51.77572003760255),,,,,,,,,,,,,,,,,,,,,,,,,,,,,,,,,P,Secondary,2016
UWWTD_United-Kingdom_UrbanWasteWaterTreatmentPlant.fid-27ca0597_176cdf32d22_-150b,2016_uww_UKENMI_ST_TP000096,UKENMI_ST_TP000096,UK5,FRANKTON STW,1,,ISCON,UKG13,2477,2750,1,1,0,0,0,0,0,0,0,,P,P,,NR,NR,P,,52.32118808,-1.36601761,POINT (-1.366017607 52.321188117061595),,,,,,,,,,,,,,,,,,,,,,,,,,,,,,,,,P,Secondary,2016
UWWTD_United-Kingdom_UrbanWasteWaterTreatmentPlant.fid-27ca0597_176cdf32d22_-150a,2016_uww_UKNI_TP00096,UKNI_TP00096,UK5,Creagh,1,,ISCON,UKN11,2046,4400,1,1,0,0,0,0,0,0,0,,P,P,NR,NR,NR,NR,,54.759,-6.512,POINT (-6.512 54.75900003423185),,,,,,,,,,,,,,,,,,,,,,,,,,,,,,,,,NR,Secondary,2016
UWWTD_United-Kingdom_UrbanWasteWaterTreatmentPlant.fid-27ca0597_176cdf32d22_-1509,2016_uww_UKNI_TP00097,UKNI_TP00097,UK5,Donaghmore,1,,ISCON,UKN11,2024,1500,1,1,0,0,0,0,0,1,0,,P,P,NR,NR,NR,NR,,54.5306,-6.8065,POINT (-6.806499999999999 54.53060003452334),,,,,,,,,,,,,,,,,,,,,,,,,,,,,,,,,NR,More Stringent,2016
UWWTD_United-Kingdom_UrbanWasteWaterTreatmentPlant.fid-27ca0597_176cdf32d22_-1508,2016_uww_UKWAWA_WW_TP000060,UKWAWA_WW_TP000060,UK5,DREFACH/VELI STW,1,,ISCON,UKL14,2455,2519,1,1,0,0,0,0,0,0,0,,P,P,,NR,NR,,,52.0321732,-4.40494821,POINT (-4.40494820927523 52.03217323269851),,,,,,,,,,,,,,,,,,,,,,,,,,,,,,,,,,Secondary,2016
UWWTD_United-Kingdom_UrbanWasteWaterTreatmentPlant.fid-27ca0597_176cdf32d22_-1507,2016_uww_UKWAWA_WW_TP000068,UKWAWA_WW_TP000068,UK5,LLANDOVERY WASTEWATER TREATMENT STW,1,,ISCON,UKL14,2133,2343,1,1,0,0,0,0,0,0,0,,P,P,,NR,NR,,,51.98269855,-3.80489799,POINT (-3.80489799054482 51.982698590303045),,,,,,,,,,,,,,,,,,,,,,,,,,,,,,,,,,Secondary,2016
UWWTD_United-Kingdom_UrbanWasteWaterTreatmentPlant.fid-27ca0597_176cdf32d22_-1506,2016_uww_UKENSO_SW_TP000035,UKENSO_SW_TP000035,UK5,LINGFIELD STW,1,,ISCON,UKJ26,10947,11616,1,1,0,1,0,0,0,1,0,,P,P,,NR,P,P,,51.18736794,-0.0149914,POINT (-0.014991404 51.18736797814477),,,,,,,,,,,,,,,,,,,,,,,,,,,,,,,,,P,More Stringent,2016
UWWTD_United-Kingdom_UrbanWasteWaterTreatmentPlant.fid-27ca0597_176cdf32d22_-1505,2016_uww_UKENSO_SW_TP000036,UKENSO_SW_TP000036,UK5,ROBERTSBRIDGE STW,1,,ISCON,UKJ22,2449,2529,1,1,0,0,0,0,0,1,0,,P,P,,NR,NR,P,,50.98489896,0.48395827,POINT (0.483958271 50.984898998321185),,,,,,,,,,,,,,,,,,,,,,,,,,,,,,,,,P,More Stringent,2016
UWWTD_United-Kingdom_UrbanWasteWaterTreatmentPlant.fid-27ca0597_176cdf32d22_-1504,2016_uww_UKENSO_SW_TP000037,UKENSO_SW_TP000037,UK5,TENTERDEN STW,1,,ISCON,UKJ45,8028,8866,1,1,0,0,0,0,0,1,0,,P,P,,NR,NR,P,,51.06276798,0.66244184,POINT (0.6624418369999999 51.06276801825396),,,,,,,,,,,,,,,,,,,,,,,,,,,,,,,,,P,More Stringent,2016
UWWTD_United-Kingdom_UrbanWasteWaterTreatmentPlant.fid-27ca0597_176cdf32d22_-1503,2016_uww_UKENSO_SW_TP000038,UKENSO_SW_TP000038,UK5,EDENBRIDGE STW,1,,ISCON,UKJ46,10208,11281,1,1,0,0,0,0,0,1,0,,P,P,,NR,NR,P,,51.2022317,0.0778218,POINT (0.077821803 51.202231738131616),,,,,,,,,,,,,,,,,,,,,,,,,,,,,,,,,P,More Stringent,2016
UWWTD_United-Kingdom_UrbanWasteWaterTreatmentPlant.fid-27ca0597_176cdf32d22_-1502,2016_uww_UKENSO_SW_TP000039,UKENSO_SW_TP000039,UK5,LEEDS STW,1,,ISCON,UKJ45,4194,4194,1,1,0,0,0,0,0,1,0,,P,P,,NR,NR,P,,51.25243564,0.61091413,POINT (0.610914128 51.25243567808697),,,,,,,,,,,,,,,,,,,,,,,,,,,,,,,,,P,More Stringent,2016
UWWTD_United-Kingdom_UrbanWasteWaterTreatmentPlant.fid-27ca0597_176cdf32d22_-1501,2016_uww_UKENSO_SW_TP000040,UKENSO_SW_TP000040,UK5,SELLINGE STW,1,,ISCON,UKJ45,4965,5055,1,1,0,0,0,0,0,1,0,,P,P,,NR,NR,P,,51.10514198,0.97834191,POINT (0.9783419110000001 51.10514201821705),,,,,,,,,,,,,,,,,,,,,,,,,,,,,,,,,P,More Stringent,2016
UWWTD_United-Kingdom_UrbanWasteWaterTreatmentPlant.fid-27ca0597_176cdf32d22_-1500,2016_uww_UKENSO_SW_TP000041,UKENSO_SW_TP000041,UK5,BIDBOROUGH STW,1,,ISCON,UKJ46,9496,9496,1,1,0,0,0,0,0,1,0,,P,P,,NR,NR,P,,51.15961194,0.22879491,POINT (0.228794907 51.159611978169266),,,,,,,,,,,,,,,,,,,,,,,,,,,,,,,,,P,More Stringent,2016
UWWTD_United-Kingdom_UrbanWasteWaterTreatmentPlant.fid-27ca0597_176cdf32d22_-14ff,2016_uww_UKENSO_SW_TP000042,UKENSO_SW_TP000042,UK5,TUNBRIDGE WELLS North STW,1,,ISCON,UKJ46,31441,31441,1,1,0,1,0,0,0,1,0,,P,P,,NR,P,P,,51.15694529,0.28908989,POINT (0.289089886 51.15694532817162),,,,,,,,,,,,,,,,,,,,,,,,,,,,,,,,,P,More Stringent,2016
UWWTD_United-Kingdom_UrbanWasteWaterTreatmentPlant.fid-27ca0597_176cdf32d22_-14fe,2016_uww_UKENSO_SW_TP000043,UKENSO_SW_TP000043,UK5,SWALECLIFFE STW,1,,ISCON,UKJ44,34427,36960,1,1,0,0,1,0,0,1,0,,P,P,,NR,NR,P,,51.36447219,1.06472967,POINT (1.0647296690000003 51.364472227986155),,,,,,,,,,,,,,,,,,,,,,,,,,,,,,,,,P,More Stringent,2016
UWWTD_United-Kingdom_UrbanWasteWaterTreatmentPlant.fid-27ca0597_176cdf32d22_-14fd,2016_uww_UKENSO_SW_TP000045,UKENSO_SW_TP000045,UK5,GODSTONE STW,1,,ISCON,UKJ26,5040,5348,1,1,0,0,0,0,0,0,0,,P,P,,NR,NR,P,,51.23698012,-0.04690885,POINT (-0.046908847 51.236980158100735),,,,,,,,,,,,,,,,,,,,,,,,,,,,,,,,,P,Secondary,2016
UWWTD_United-Kingdom_UrbanWasteWaterTreatmentPlant.fid-27ca0597_176cdf32d22_-14fc,2016_uww_UKENSO_SW_TP000046,UKENSO_SW_TP000046,UK5,DITTON STW,1,,ISCON,UKJ46,10519,10519,1,1,0,0,0,0,0,0,0,,P,P,,NR,NR,P,,51.3039137,0.45217957,POINT (0.4521795720000001 51.303913738040855),,,,,,,,,,,,,,,,,,,,,,,,,,,,,,,,,P,Secondary,2016
UWWTD_United-Kingdom_UrbanWasteWaterTreatmentPlant.fid-27ca0597_176cdf32d22_-14fb,2016_uww_UKENSO_SW_TP000048,UKENSO_SW_TP000048,UK5,WADHURST WHITEGATES STW,1,,ISCON,UKJ22,2800,2963,1,1,0,0,0,0,0,0,0,,P,P,,NR,NR,P,,51.08349709,0.32722732,POINT (0.327227324 51.083497128235926),,,,,,,,,,,,,,,,,,,,,,,,,,,,,,,,,P,Secondary,2016
UWWTD_United-Kingdom_UrbanWasteWaterTreatmentPlant.fid-27ca0597_176cdf32d22_-14fa,2016_uww_UKENSO_SW_TP000049,UKENSO_SW_TP000049,UK5,CROWBOROUGH   STW,1,,ISCON,UKJ22,2258,2320,1,1,0,0,0,0,0,0,0,,P,P,,NR,NR,P,,51.07807026,0.14014027,POINT (0.140140271 51.07807029824064),,,,,,,,,,,,,,,,,,,,,,,,,,,,,,,,,P,Secondary,2016
UWWTD_United-Kingdom_UrbanWasteWaterTreatmentPlant.fid-27ca0597_176cdf32d22_-14f9,2016_uww_UKENSO_SW_TP000050,UKENSO_SW_TP000050,UK5,CRANBROOK STW,1,,ISCON,UKJ46,6497,7191,1,1,0,0,0,0,0,1,0,,P,P,,NR,NR,P,,51.09634129,0.54423235,POINT (0.5442323489999998 51.09634132822474),,,,,,,,,,,,,,,,,,,,,,,,,,,,,,,,,P,More Stringent,2016
UWWTD_United-Kingdom_UrbanWasteWaterTreatmentPlant.fid-27ca0597_176cdf32d22_-14f8,2016_uww_UKENMI_ST_TP000293,UKENMI_ST_TP000293,UK5,RAMPTON STW,1,,ISCON,UKF15,2081,2081,1,1,0,0,0,0,0,0,0,,P,P,,NR,NR,P,,53.289751,-0.797755,POINT (-0.797755 53.28975103601461),,,,,,,,,,,New - crossed 2k threshold in 2015,,,,,,,,,,,,,,,,,,,,,,P,Secondary,2016
UWWTD_United-Kingdom_UrbanWasteWaterTreatmentPlant.fid-27ca0597_176cdf32d22_-14f7,2016_uww_UKENNE_NU_TP000001,UKENNE_NU_TP000001,UK5,ALNWICK STW,1,,ISCON,UKC21,8707,8707,1,1,0,0,0,0,0,0,0,,P,P,,NR,NR,P,,55.41231292,-1.67935939,POINT (-1.679359391 55.412312953370964),,,,,,,,,,,,,,,,,,,,,,,,,,,,,,,,,P,Secondary,2016
UWWTD_United-Kingdom_UrbanWasteWaterTreatmentPlant.fid-27ca0597_176cdf32d22_-14f6,2016_uww_UKENNE_NU_TP000002,UKENNE_NU_TP000002,UK5,AMBLE STW,1,,ISCON,UKC21,7614,29854,1,1,0,0,0,0,0,0,0,,P,P,,NR,NR,P,,55.32323485,-1.58032187,POINT (-1.580321871 55.323234883490635),,,,,,,,,,,,,,,,,,,,,,,,,,,,,,,,,P,Secondary,2016
UWWTD_United-Kingdom_UrbanWasteWaterTreatmentPlant.fid-27ca0597_176cdf32d22_-14f5,2016_uww_UKENNE_NU_TP000003,UKENNE_NU_TP000003,UK5,NEWTON   STW,1,,ISCON,UKC14,60502,74848,1,1,0,1,0,0,0,0,0,,P,P,,NR,P,P,,54.60381884,-1.56236164,POINT (-1.5623616379999996 54.603818874430445),,,,,,,,,,,,,,,,,,,,,,,,,,,,,,,,,P,More Stringent,2016
UWWTD_United-Kingdom_UrbanWasteWaterTreatmentPlant.fid-27ca0597_176cdf32d22_-14f4,2016_uww_UKENNE_NU_TP000004,UKENNE_NU_TP000004,UK5,DURHAM (BARKERS HAUGH) STW,1,,ISCON,UKC14,35138,35138,1,1,0,1,0,0,0,0,0,,P,P,,NR,P,P,,54.78383048,-1.56461972,POINT (-1.5646197230000003 54.78383051419984),,,,,,,,,,,,,,,,,,,,,,,,,,,,,,,,,P,More Stringent,2016
UWWTD_United-Kingdom_UrbanWasteWaterTreatmentPlant.fid-27ca0597_176cdf32d22_-14f3,2016_uww_UKENNE_NU_TP000005,UKENNE_NU_TP000005,UK5,BARNARD CASTLE STW,1,,ISCON,UKC14,9504,10892,1,1,0,0,0,0,0,0,0,,P,P,,NR,NR,P,,54.53834851,-1.91807104,POINT (-1.9180710370000003 54.53834854451354),,,,,,,,,,,,,,,,,,,,,,,,,,,,,,,,,P,Secondary,2016
UWWTD_United-Kingdom_UrbanWasteWaterTreatmentPlant.fid-27ca0597_176cdf32d22_-14f2,2016_uww_UKENNW_UU_TP000138,UKENNW_UU_TP000138,UK5,WINSFORD STW,1,,ISCON,UKD63,34854,37658,1,1,0,0,0,0,0,0,0,,P,P,,NR,NR,P,,53.20170307,-2.52344135,POINT (-2.5234413520000003 53.20170310611418),,,,,,,,,,,,,,,,,,,,,,,,,,,,,,,,,P,Secondary,2016
UWWTD_United-Kingdom_UrbanWasteWaterTreatmentPlant.fid-27ca0597_176cdf32d22_-14f1,2016_uww_UKENNW_UU_TP000139,UKENNW_UU_TP000139,UK5,WORKINGTON STW,1,,ISCON,UKD11,53490,75866,1,1,0,0,0,0,0,0,0,,P,P,,NR,NR,P,,54.67177383,-3.54474469,POINT (-3.544744689 54.67177386434375),,,,,,,,,,,,,,,,,,,,,,,,,,,,,,,,,P,Secondary,2016
UWWTD_United-Kingdom_UrbanWasteWaterTreatmentPlant.fid-27ca0597_176cdf32d22_-14f0,2016_uww_UKENNW_UU_TP000140,UKENNW_UU_TP000140,UK5,WORSLEY STW,1,,ISCON,UKD34,22886,22886,1,1,0,1,0,0,0,0,0,Ferric Dosing,P,P,,NR,P,P,,53.52068437,-2.42153275,POINT (-2.421532751 53.52068440574937),,,,,,,,,,,,,,,,,,,,,,,,,,,,,,,,,P,More Stringent,2016
UWWTD_United-Kingdom_UrbanWasteWaterTreatmentPlant.fid-27ca0597_176cdf32d22_-14ef,2016_uww_UKENNW_UU_TP000141,UKENNW_UU_TP000141,UK5,WRENBURY STW,1,,ISCON,UKD62,3287,3445,1,1,0,0,0,0,0,0,0,,P,P,,NR,NR,P,,53.02389284,-2.58633227,POINT (-2.5863322700000007 53.023892876312665),,,,,,,,,,,,,,,,,,,,,,,,,,,,,,,,,P,Secondary,2016
UWWTD_United-Kingdom_UrbanWasteWaterTreatmentPlant.fid-27ca0597_176cdf32d22_-14ee,2016_uww_UKENNW_UU_TP000142,UKENNW_UU_TP000142,UK5,SALFORD STW,1,,ISCON,UKD34,103098,105720,1,1,0,0,0,0,0,0,0,,P,P,,NR,NR,P,,53.47926186,-2.31141272,POINT (-2.3114127230000006 53.47926189579738),,,,,,,,,,,,,,,,,,,,,,,,,,,,,,,,,P,Secondary,2016
UWWTD_United-Kingdom_UrbanWasteWaterTreatmentPlant.fid-27ca0597_176cdf32d22_-14ed,2016_uww_UKENNW_UU_TP000143,UKENNW_UU_TP000143,UK5,DALSTON WWTW,0,,ISCON,UKD12,1568,3652,1,1,0,0,0,0,0,0,0,,P,P,,NR,NR,P,,54.85147479,-2.96781618,POINT (-2.967816181 54.851474824112394),,,,,,,,,,,"Below 2000 PE threshold, so no longer a qualifying discharge under UWWTD",,,,,,,,,,,,,,,,,,,,,,P,Secondary,2016
UWWTD_United-Kingdom_UrbanWasteWaterTreatmentPlant.fid-27ca0597_176cdf32d22_-14ec,2016_uww_UKENNW_UU_TP000148,UKENNW_UU_TP000148,UK5,INGLETON ETW EFFLUENT FROM LAND TREATMNT,1,,ISCON,UKE22,2641,2742,1,1,0,0,0,0,0,0,0,,P,P,,NR,NR,P,,54.14845096,-2.48101394,POINT (-2.481013944 54.148450994999585),,,,,,,,,,,,,,,,,,,,,,,,,,,,,,,,,P,Secondary,2016
UWWTD_United-Kingdom_UrbanWasteWaterTreatmentPlant.fid-27ca0597_176cdf32d22_-14eb,2016_uww_UKENNW_UU_TP000151,UKENNW_UU_TP000151,UK5,KIRKBY LONSDALE STW HUMUS TANK EFFLUENT,1,,ISCON,UKD44,2028,2182,1,1,0,0,0,0,0,0,0,,P,P,,NR,NR,P,,54.19523408,-2.59130012,POINT (-2.591300122 54.19523411494207),,,,,,,,,,,,,,,,,,,,,,,,,,,,,,,,,P,Secondary,2016
UWWTD_United-Kingdom_UrbanWasteWaterTreatmentPlant.fid-27ca0597_176cdf32d22_-14ea,2016_uww_UKENNW_UU_TP000146,UKENNW_UU_TP000146,UK5,NEWBIGGIN STW HUMUS TANK EFFLUENT,1,,ISCON,UKD12,2310,2498,1,1,0,0,0,0,0,0,0,UV treatment,P,P,,NR,NR,P,,54.11147495,-3.12681986,POINT (-3.1268198609999995 54.11147498504489),,,,,,,,,,,,,,,,,,,,,,,,,,,,,,,,,P,Secondary,2016
UWWTD_United-Kingdom_UrbanWasteWaterTreatmentPlant.fid-27ca0597_176cdf32d22_-14e9,2016_uww_UKENNW_DC_TP000001,UKENNW_DC_TP000001,UK5,TATTENHALL WWTW,1,,ISCON,UKD63,2129,2129,1,1,0,1,0,0,0,0,0,,P,P,,NR,P,P,,53.12774458,-2.78048904,POINT (-2.7804890440000003 53.12774461619717),,,,,,,,,,,,,,,,,,,,,,,,,,,,,,,,,P,More Stringent,2016
UWWTD_United-Kingdom_UrbanWasteWaterTreatmentPlant.fid-27ca0597_176cdf32d22_-14e8,2016_uww_UKWAWA_WW_TP000083,UKWAWA_WW_TP000083,UK5,LLANGEFNI STW,1,,ISCON,UKL11,20171,26883,1,1,0,0,0,0,0,1,0,,P,P,,NR,NR,,,53.24575861,-4.3012516,POINT (-4.301251596690129 53.24575864527936),,,,,,,,,,,,,,,,,,,,,,,,,,,,,,,,,,More Stringent,2016
UWWTD_United-Kingdom_UrbanWasteWaterTreatmentPlant.fid-27ca0597_176cdf32d22_-14e7,2016_uww_UKWAWA_WW_TP000130,UKWAWA_WW_TP000130,UK5,GAERWEN STW,1,,ISCON,UKL11,2977,2977,1,1,0,0,0,0,0,0,0,,P,P,,NR,NR,,,53.22796404,-4.29854382,POINT (-4.2985438151816995 53.22796407331227),,,,,,,,,,,,,,,,,,,,,,,,,,,,,,,,,,Secondary,2016
UWWTD_United-Kingdom_UrbanWasteWaterTreatmentPlant.fid-27ca0597_176cdf32d22_-14e6,2016_uww_UKENNE_NU_TP000006,UKENNE_NU_TP000006,UK5,BEAR PARK   STW,1,,ISCON,UKC14,2152,2283,1,1,0,0,0,0,0,0,0,,P,P,,NR,NR,P,,54.78283391,-1.61547398,POINT (-1.615473976 54.78283394420112),,,,,,,,,,,,,,,,,,,,,,,,,,,,,,,,,P,Secondary,2016
UWWTD_United-Kingdom_UrbanWasteWaterTreatmentPlant.fid-27ca0597_176cdf32d22_-14e5,2016_uww_UKENNE_NU_TP000007,UKENNE_NU_TP000007,UK5,DURHAM (BELMONT) STW,1,,ISCON,UKC14,9285,34627,1,1,0,1,0,0,0,0,0,,P,P,,NR,P,P,,54.80095644,-1.53021375,POINT (-1.5302137529999997 54.80095647417775),,,,,,,,,,,,,,,,,,,,,,,,,,,,,,,,,P,More Stringent,2016
UWWTD_United-Kingdom_UrbanWasteWaterTreatmentPlant.fid-27ca0597_176cdf32d22_-14e4,2016_uww_UKENNE_NU_TP000008,UKENNE_NU_TP000008,UK5,BERWICK STW,1,,ISCON,UKC21,16770,28542,1,1,0,0,0,0,0,0,0,,P,P,,NR,NR,P,,55.76539997,-2.03346068,POINT (-2.0334606840000005 55.76540000288979),,,,,,,,,,,,,,,,,,,,,,,,,,,,,,,,,P,Secondary,2016
UWWTD_United-Kingdom_UrbanWasteWaterTreatmentPlant.fid-27ca0597_176cdf32d22_-14e3,2016_uww_UKENNE_NU_TP000010,UKENNE_NU_TP000010,UK5,BLYTH STW,1,,ISCON,UKC21,37532,38001,1,1,0,0,0,0,0,0,0,,P,P,,NR,NR,P,,55.13366599,-1.53980618,POINT (-1.5398061810000003 55.133666023742926),,,,,,,,,,,,,,,,,,,,,,,,,,,,,,,,,P,Secondary,2016
UWWTD_United-Kingdom_UrbanWasteWaterTreatmentPlant.fid-27ca0597_176cdf32d22_-14e2,2016_uww_UKENNE_NU_TP000011,UKENNE_NU_TP000011,UK5,BOWBURN   STW,1,,ISCON,UKC14,9150,11000,1,1,0,1,0,0,0,1,0,NSAF,P,P,,NR,P,P,,54.72709584,-1.5326206,POINT (-1.5326205959999997 54.727095874272855),,,,,,,,,,,,,,,,,,,,,,,,,,,,,,,,,P,More Stringent,2016
UWWTD_United-Kingdom_UrbanWasteWaterTreatmentPlant.fid-27ca0597_176cdf32d22_-14e1,2016_uww_UKENNE_NU_TP000012,UKENNE_NU_TP000012,UK5,MIDDLESBOROUGH   STW,1,,ISCON,UKC12,399044,568783,1,1,0,0,1,0,0,0,0,,P,P,,NR,NR,P,,54.60887353,-1.13267295,POINT (-1.1326729529999997 54.608873564424),,,,,,,,,,,,,,,,,,,,,,,,,,,,,,,,,P,More Stringent,2016
UWWTD_United-Kingdom_UrbanWasteWaterTreatmentPlant.fid-27ca0597_176cdf32d22_-14e0,2016_uww_UKENNE_NU_TP000013,UKENNE_NU_TP000013,UK5,BROOMHAUGH STW,1,,ISCON,UKC21,7103,7116,1,1,0,0,0,0,0,0,0,,P,P,,NR,NR,P,,54.95264797,-1.95782962,POINT (-1.9578296180000005 54.95264800398079),,,,,,,,,,,,,,,,,,,,,,,,,,,,,,,,,P,Secondary,2016
UWWTD_United-Kingdom_UrbanWasteWaterTreatmentPlant.fid-27ca0597_176cdf32d22_-14df,2016_uww_UKENNE_NU_TP000014,UKENNE_NU_TP000014,UK5,DURHAM (BROWNEY) STW,1,,ISCON,UKC14,20631,22322,1,1,0,1,0,0,0,0,0,,P,P,,NR,P,P,,54.74171276,-1.59924326,POINT (-1.5992432589999999 54.741712794254084),,,,,,,,,,,,,,,,,,,,,,,,,,,,,,,,,P,More Stringent,2016
UWWTD_United-Kingdom_UrbanWasteWaterTreatmentPlant.fid-27ca0597_176cdf32d22_-14de,2016_uww_UKENNE_NU_TP000015,UKENNE_NU_TP000015,UK5,CAMBOIS STW,1,,ISCON,UKC21,29411,30132,1,1,0,0,0,0,0,0,0,,P,P,,NR,NR,P,,55.15673582,-1.5405138,POINT (-1.5405138020000004 55.1567358537124),,,,,,,,,,,,,,,,,,,,,,,,,,,,,,,,,P,Secondary,2016
UWWTD_United-Kingdom_UrbanWasteWaterTreatmentPlant.fid-27ca0597_176cdf32d22_-14dd,2016_uww_UKENNE_NU_TP000016,UKENNE_NU_TP000016,UK5,CARLTON & REDMARSHALL STW,1,,ISCON,UKC11,2641,2641,1,1,0,0,0,0,0,0,0,,P,P,,NR,NR,P,,54.59380668,-1.40600175,POINT (-1.4060017530000002 54.593806714443176),,,,,,,,,,,,,,,,,,,,,,,,,,,,,,,,,P,Secondary,2016
